[{"id":11,"name":"KREMSMUENSTER (TAWES)","country":"AT","lat":48.055,"lon":14.1308,"height":382,"cc":true,"dd":true,"fg":true,"fx":true,"hu":true,"pp":true,"qq":true,"rr":true,"sd":true,"ss":true,"tg":true,"tn":true,"tx":true},{"id":12,"name":"GRAZ-UNIVERSITAET","country":"AT","lat":47.0778,"lon":15.4489,"height":367,"cc":true,"dd":true,"fg":true,"fx":true,"hu":true,"pp":true,"qq":true,"rr":true,"sd":true,"ss":true,"tg":true,"tn":true,"tx":true},{"id":13,"name":"INNSBRUCK-UNIV","country":"AT","lat":47.26,"lon":11.3842,"height":578,"cc":true,"dd":true,"fg":true,"fx":true,"hu":true,"pp":true,"qq":true,"rr":true,"sd":false,"ss":true,"tg":true,"tn":true,"tx":true},{"id":14,"name":"SALZBURG-FLUGHAFEN","country":"AT","lat":47.7892,"lon":13.0081,"height":430,"cc":true,"dd":true,"fg":true,"fx":true,"hu":true,"pp":true,"qq":true,"rr":true,"sd":true,"ss":true,"tg":true,"tn":true,"tx":true},{"id":15,"name":"SONNBLICK (TAWES)","country":"AT","lat":47.0542,"lon":12.9575,"height":3109,"cc":true,"dd":true,"fg":true,"fx":true,"hu":true,"pp":true,"qq":true,"rr":true,"sd":true,"ss":true,"tg":true,"tn":true,"tx":true},{"id":16,"name":"WIEN-HOHE WARTE","country":"AT","lat":48.2483,"lon":16.3564,"height":198,"cc":true,"dd":true,"fg":true,"fx":true,"hu":true,"pp":true,"qq":true,"rr":true,"sd":true,"ss":true,"tg":true,"tn":true,"tx":true},{"id":2219,"name":"BREGENZ","country":"AT","lat":47.5,"lon":9.73,"height":424,"cc":false,"dd":false,"fg":false,"fx":false,"hu":false,"pp":false,"qq":true,"rr":false,"sd":false,"ss":false,"tg":false,"tn":false,"tx":false},{"id":16324,"name":"OBERSIEBENBRUNN","country":"AT","lat":48.2664,"lon":16.7,"height":150,"cc":false,"dd":false,"fg":false,"fx":false,"hu":false,"pp":false,"qq":true,"rr":false,"sd":false,"ss":false,"tg":false,"tn":false,"tx":false},{"id":23887,"name":"GUMPOLDSKIRCHEN","country":"AT","lat":48.0356,"lon":16.2806,"height":212,"cc":false,"dd":true,"fg":true,"fx":true,"hu":true,"pp":true,"qq":true,"rr":true,"sd":false,"ss":true,"tg":true,"tn":true,"tx":true},{"id":23888,"name":"KAPFENBERG-FLUGFELD","country":"AT","lat":47.4581,"lon":15.3356,"height":515,"cc":false,"dd":true,"fg":true,"fx":true,"hu":true,"pp":true,"qq":true,"rr":true,"sd":false,"ss":true,"tg":true,"tn":true,"tx":true},{"id":23889,"name":"HORN -  WASSERWERK","country":"AT","lat":48.6744,"lon":15.6433,"height":308,"cc":false,"dd":true,"fg":true,"fx":true,"hu":true,"pp":true,"qq":true,"rr":true,"sd":false,"ss":true,"tg":true,"tn":true,"tx":true},{"id":23890,"name":"ACHENKIRCH","country":"AT","lat":47.5075,"lon":11.7006,"height":937,"cc":true,"dd":true,"fg":true,"fx":true,"hu":false,"pp":false,"qq":false,"rr":true,"sd":false,"ss":false,"tg":false,"tn":false,"tx":false},{"id":23891,"name":"GASCHURN","country":"AT","lat":46.9803,"lon":10.0317,"height":985,"cc":false,"dd":true,"fg":true,"fx":true,"hu":true,"pp":true,"qq":true,"rr":true,"sd":false,"ss":true,"tg":true,"tn":true,"tx":true},{"id":23892,"name":"KLAGENFURT/HTL1-LASTENSTRASSE","country":"AT","lat":46.6192,"lon":14.3167,"height":441,"cc":false,"dd":true,"fg":true,"fx":true,"hu":true,"pp":false,"qq":true,"rr":true,"sd":false,"ss":true,"tg":true,"tn":true,"tx":true},{"id":23893,"name":"ROHRBACH","country":"AT","lat":48.5669,"lon":14.0042,"height":613,"cc":false,"dd":true,"fg":true,"fx":true,"hu":true,"pp":true,"qq":true,"rr":true,"sd":false,"ss":true,"tg":true,"tn":true,"tx":true},{"id":23894,"name":"ANDAU","country":"AT","lat":47.77,"lon":17.0353,"height":117,"cc":false,"dd":true,"fg":true,"fx":true,"hu":true,"pp":true,"qq":true,"rr":true,"sd":false,"ss":true,"tg":true,"tn":true,"tx":true},{"id":23895,"name":"LITSCHAU","country":"AT","lat":48.9544,"lon":15.0381,"height":558,"cc":true,"dd":true,"fg":true,"fx":true,"hu":true,"pp":true,"qq":true,"rr":true,"sd":false,"ss":true,"tg":true,"tn":true,"tx":true},{"id":23902,"name":"RAABS/THAYA","country":"AT","lat":48.8481,"lon":15.5017,"height":458,"cc":false,"dd":true,"fg":true,"fx":true,"hu":true,"pp":true,"qq":true,"rr":true,"sd":false,"ss":true,"tg":true,"tn":true,"tx":true},{"id":23904,"name":"RETZ","country":"AT","lat":48.7533,"lon":15.95,"height":256,"cc":true,"dd":true,"fg":true,"fx":true,"hu":true,"pp":true,"qq":true,"rr":true,"sd":false,"ss":true,"tg":true,"tn":true,"tx":true},{"id":23905,"name":"RETZ/WINDMUEHLE","country":"AT","lat":48.7608,"lon":15.9417,"height":320,"cc":false,"dd":true,"fg":true,"fx":true,"hu":true,"pp":true,"qq":true,"rr":true,"sd":false,"ss":true,"tg":true,"tn":true,"tx":true},{"id":23913,"name":"FREISTADT","country":"AT","lat":48.4942,"lon":14.5064,"height":539,"cc":false,"dd":true,"fg":true,"fx":true,"hu":true,"pp":true,"qq":true,"rr":true,"sd":false,"ss":true,"tg":true,"tn":true,"tx":true},{"id":23918,"name":"WEITRA","country":"AT","lat":48.7017,"lon":14.8981,"height":572,"cc":true,"dd":true,"fg":true,"fx":true,"hu":true,"pp":true,"qq":true,"rr":true,"sd":false,"ss":true,"tg":true,"tn":true,"tx":true},{"id":23923,"name":"STIFT ZWETTL","country":"AT","lat":48.6178,"lon":15.2031,"height":502,"cc":true,"dd":true,"fg":true,"fx":true,"hu":true,"pp":true,"qq":true,"rr":true,"sd":false,"ss":true,"tg":true,"tn":true,"tx":true},{"id":23932,"name":"SCHOENGRABERN","country":"AT","lat":48.6031,"lon":16.0614,"height":253,"cc":true,"dd":true,"fg":true,"fx":true,"hu":true,"pp":true,"qq":true,"rr":true,"sd":false,"ss":true,"tg":true,"tn":true,"tx":true},{"id":23938,"name":"LAA/TH.KLAERANLAGE","country":"AT","lat":48.7308,"lon":16.3894,"height":184,"cc":true,"dd":true,"fg":true,"fx":true,"hu":true,"pp":true,"qq":true,"rr":true,"sd":false,"ss":true,"tg":true,"tn":true,"tx":true},{"id":23941,"name":"MISTELBACH","country":"AT","lat":48.5706,"lon":16.6092,"height":191,"cc":false,"dd":true,"fg":true,"fx":true,"hu":true,"pp":true,"qq":false,"rr":true,"sd":false,"ss":true,"tg":true,"tn":true,"tx":true},{"id":23944,"name":"POYSDORF-OST","country":"AT","lat":48.6692,"lon":16.6375,"height":198,"cc":true,"dd":true,"fg":true,"fx":true,"hu":true,"pp":true,"qq":true,"rr":true,"sd":false,"ss":true,"tg":true,"tn":true,"tx":true},{"id":23947,"name":"HOHENAU","country":"AT","lat":48.6164,"lon":16.9042,"height":154,"cc":true,"dd":true,"fg":true,"fx":true,"hu":true,"pp":true,"qq":true,"rr":true,"sd":false,"ss":true,"tg":true,"tn":true,"tx":true},{"id":23948,"name":"REICHERSBERG","country":"AT","lat":48.3308,"lon":13.3756,"height":351,"cc":true,"dd":true,"fg":true,"fx":true,"hu":true,"pp":true,"qq":true,"rr":true,"sd":false,"ss":true,"tg":true,"tn":true,"tx":true},{"id":23949,"name":"SCHAERDING","country":"AT","lat":48.4642,"lon":13.4342,"height":307,"cc":true,"dd":true,"fg":true,"fx":true,"hu":true,"pp":true,"qq":true,"rr":true,"sd":false,"ss":true,"tg":true,"tn":true,"tx":true},{"id":23951,"name":"WAIZENKIRCHEN","country":"AT","lat":48.3267,"lon":13.8642,"height":400,"cc":true,"dd":true,"fg":true,"fx":true,"hu":true,"pp":true,"qq":true,"rr":true,"sd":false,"ss":true,"tg":true,"tn":true,"tx":true},{"id":23954,"name":"LINZ-STADT","country":"AT","lat":48.2964,"lon":14.285,"height":262,"cc":true,"dd":true,"fg":true,"fx":true,"hu":true,"pp":true,"qq":true,"rr":true,"sd":false,"ss":true,"tg":true,"tn":true,"tx":true},{"id":23964,"name":"BAD ZELL","country":"AT","lat":48.355,"lon":14.6631,"height":554,"cc":false,"dd":true,"fg":true,"fx":true,"hu":true,"pp":true,"qq":true,"rr":true,"sd":false,"ss":true,"tg":true,"tn":true,"tx":true},{"id":23968,"name":"BAERNKOPF","country":"AT","lat":48.3906,"lon":15.0028,"height":969,"cc":true,"dd":true,"fg":true,"fx":true,"hu":true,"pp":true,"qq":true,"rr":true,"sd":false,"ss":true,"tg":true,"tn":true,"tx":true},{"id":23972,"name":"JAUERLING","country":"AT","lat":48.3369,"lon":15.3481,"height":860,"cc":true,"dd":true,"fg":true,"fx":true,"hu":true,"pp":false,"qq":false,"rr":true,"sd":false,"ss":false,"tg":true,"tn":true,"tx":true},{"id":23974,"name":"LANGENLEBARN","country":"AT","lat":48.3239,"lon":16.1178,"height":175,"cc":true,"dd":true,"fg":true,"fx":true,"hu":true,"pp":true,"qq":true,"rr":true,"sd":false,"ss":true,"tg":true,"tn":true,"tx":true},{"id":23976,"name":"BRAUNAU/RANSHOFEN","country":"AT","lat":48.2242,"lon":13.0281,"height":382,"cc":true,"dd":true,"fg":true,"fx":true,"hu":true,"pp":true,"qq":true,"rr":true,"sd":false,"ss":true,"tg":true,"tn":true,"tx":true},{"id":23977,"name":"OSTERMIETHING","country":"AT","lat":48.0528,"lon":12.8317,"height":412,"cc":false,"dd":true,"fg":true,"fx":true,"hu":true,"pp":true,"qq":true,"rr":true,"sd":false,"ss":true,"tg":true,"tn":true,"tx":true},{"id":23979,"name":"MATTIGHOFEN","country":"AT","lat":48.0967,"lon":13.1506,"height":460,"cc":false,"dd":true,"fg":true,"fx":true,"hu":true,"pp":true,"qq":true,"rr":true,"sd":false,"ss":true,"tg":true,"tn":true,"tx":true},{"id":23980,"name":"RIED IM INNKREIS","country":"AT","lat":48.2169,"lon":13.475,"height":427,"cc":true,"dd":true,"fg":true,"fx":true,"hu":true,"pp":true,"qq":true,"rr":true,"sd":false,"ss":true,"tg":true,"tn":true,"tx":true},{"id":23983,"name":"WOLFSEGG","country":"AT","lat":48.1056,"lon":13.6706,"height":635,"cc":true,"dd":true,"fg":true,"fx":true,"hu":true,"pp":true,"qq":true,"rr":true,"sd":false,"ss":true,"tg":true,"tn":true,"tx":true},{"id":23984,"name":"VOECKLABRUCK","country":"AT","lat":48.0067,"lon":13.6453,"height":432,"cc":true,"dd":true,"fg":true,"fx":true,"hu":true,"pp":true,"qq":true,"rr":true,"sd":false,"ss":true,"tg":true,"tn":true,"tx":true},{"id":23986,"name":"WELS-SCHLEISSHEIM","country":"AT","lat":48.1625,"lon":14.0714,"height":309,"cc":false,"dd":true,"fg":true,"fx":true,"hu":true,"pp":true,"qq":true,"rr":true,"sd":false,"ss":true,"tg":true,"tn":true,"tx":true},{"id":23987,"name":"HOERSCHING","country":"AT","lat":48.2353,"lon":14.1881,"height":298,"cc":true,"dd":true,"fg":true,"fx":true,"hu":true,"pp":true,"qq":false,"rr":true,"sd":false,"ss":true,"tg":true,"tn":true,"tx":true},{"id":23991,"name":"STEYR","country":"AT","lat":48.0331,"lon":14.4331,"height":336,"cc":false,"dd":false,"fg":false,"fx":false,"hu":false,"pp":false,"qq":true,"rr":false,"sd":false,"ss":false,"tg":false,"tn":false,"tx":false},{"id":23994,"name":"WACHTBERG BEI STEYR","country":"AT","lat":48.0475,"lon":14.4606,"height":384,"cc":true,"dd":true,"fg":true,"fx":true,"hu":true,"pp":true,"qq":true,"rr":true,"sd":false,"ss":true,"tg":true,"tn":true,"tx":true},{"id":23995,"name":"ENNS","country":"AT","lat":48.1956,"lon":14.45,"height":317,"cc":false,"dd":true,"fg":true,"fx":true,"hu":true,"pp":true,"qq":true,"rr":true,"sd":false,"ss":true,"tg":true,"tn":true,"tx":true},{"id":24003,"name":"AMSTETTEN","country":"AT","lat":48.1089,"lon":14.895,"height":266,"cc":false,"dd":true,"fg":true,"fx":true,"hu":true,"pp":true,"qq":true,"rr":true,"sd":false,"ss":true,"tg":true,"tn":true,"tx":true},{"id":24007,"name":"OBERNDORF/MELK","country":"AT","lat":48.0625,"lon":15.2139,"height":295,"cc":true,"dd":true,"fg":true,"fx":true,"hu":true,"pp":true,"qq":true,"rr":true,"sd":false,"ss":true,"tg":true,"tn":true,"tx":true},{"id":24008,"name":"MELK","country":"AT","lat":48.2092,"lon":15.3308,"height":307,"cc":false,"dd":true,"fg":true,"fx":true,"hu":true,"pp":true,"qq":true,"rr":true,"sd":false,"ss":true,"tg":true,"tn":true,"tx":true},{"id":24009,"name":"WIESELBURG","country":"AT","lat":48.1269,"lon":15.1467,"height":259,"cc":true,"dd":true,"fg":true,"fx":true,"hu":true,"pp":true,"qq":true,"rr":true,"sd":false,"ss":true,"tg":true,"tn":true,"tx":true},{"id":24015,"name":"ST.POELTEN/LANDHAUS","country":"AT","lat":48.1992,"lon":15.6306,"height":273,"cc":true,"dd":true,"fg":true,"fx":true,"hu":true,"pp":true,"qq":true,"rr":true,"sd":false,"ss":true,"tg":true,"tn":true,"tx":true},{"id":24019,"name":"LILIENFELD-TARSCHBERG","country":"AT","lat":48.0281,"lon":15.5875,"height":696,"cc":true,"dd":true,"fg":true,"fx":true,"hu":true,"pp":true,"qq":true,"rr":true,"sd":false,"ss":true,"tg":true,"tn":true,"tx":true},{"id":24022,"name":"KLAUSEN-LEOPOLDSDORF","country":"AT","lat":48.0883,"lon":16.0017,"height":389,"cc":false,"dd":true,"fg":true,"fx":true,"hu":true,"pp":true,"qq":true,"rr":true,"sd":false,"ss":true,"tg":true,"tn":true,"tx":true},{"id":24026,"name":"BUCHBERG","country":"AT","lat":48.2133,"lon":15.945,"height":460,"cc":false,"dd":true,"fg":true,"fx":true,"hu":true,"pp":true,"qq":true,"rr":true,"sd":false,"ss":true,"tg":true,"tn":true,"tx":true},{"id":24028,"name":"WIEN-JUBILAEUMSWARTE","country":"AT","lat":48.2206,"lon":16.2653,"height":450,"cc":false,"dd":true,"fg":true,"fx":true,"hu":true,"pp":true,"qq":true,"rr":true,"sd":false,"ss":true,"tg":true,"tn":true,"tx":true},{"id":24030,"name":"WIEN-MARIABRUNN","country":"AT","lat":48.2067,"lon":16.2292,"height":225,"cc":true,"dd":true,"fg":true,"fx":true,"hu":true,"pp":true,"qq":true,"rr":true,"sd":false,"ss":true,"tg":true,"tn":true,"tx":true},{"id":24035,"name":"WIEN/UNTERLAA","country":"AT","lat":48.125,"lon":16.4192,"height":200,"cc":true,"dd":true,"fg":true,"fx":true,"hu":true,"pp":true,"qq":true,"rr":true,"sd":false,"ss":true,"tg":true,"tn":true,"tx":true},{"id":24039,"name":"SCHWECHAT","country":"AT","lat":48.1175,"lon":16.5808,"height":183,"cc":true,"dd":true,"fg":true,"fx":true,"hu":true,"pp":true,"qq":false,"rr":true,"sd":false,"ss":true,"tg":true,"tn":true,"tx":true},{"id":24041,"name":"BRUCKNEUDORF","country":"AT","lat":48.0128,"lon":16.8444,"height":165,"cc":true,"dd":true,"fg":true,"fx":true,"hu":true,"pp":true,"qq":true,"rr":true,"sd":false,"ss":true,"tg":true,"tn":true,"tx":true},{"id":24043,"name":"SALZBURG-FREISAAL","country":"AT","lat":47.7906,"lon":13.0542,"height":419,"cc":true,"dd":true,"fg":true,"fx":true,"hu":true,"pp":true,"qq":true,"rr":true,"sd":false,"ss":true,"tg":true,"tn":true,"tx":true},{"id":24051,"name":"FEUERKOGEL","country":"AT","lat":47.8164,"lon":13.7178,"height":1618,"cc":true,"dd":true,"fg":true,"fx":true,"hu":true,"pp":true,"qq":true,"rr":true,"sd":false,"ss":true,"tg":true,"tn":true,"tx":true},{"id":24053,"name":"ALTMUENSTER","country":"AT","lat":47.8789,"lon":13.7731,"height":438,"cc":false,"dd":true,"fg":true,"fx":true,"hu":true,"pp":true,"qq":true,"rr":true,"sd":false,"ss":true,"tg":true,"tn":true,"tx":true},{"id":24054,"name":"MICHELDORF","country":"AT","lat":47.8831,"lon":14.1342,"height":459,"cc":false,"dd":true,"fg":true,"fx":true,"hu":true,"pp":true,"qq":true,"rr":true,"sd":false,"ss":true,"tg":true,"tn":true,"tx":true},{"id":24060,"name":"LUNZ AM SEE","country":"AT","lat":47.8542,"lon":15.0675,"height":612,"cc":true,"dd":true,"fg":true,"fx":true,"hu":true,"pp":true,"qq":true,"rr":true,"sd":false,"ss":true,"tg":true,"tn":true,"tx":true},{"id":24065,"name":"MARIAZELL/ST.SEBASTIAN-FLUGFELD","country":"AT","lat":47.7889,"lon":15.3017,"height":864,"cc":true,"dd":true,"fg":true,"fx":true,"hu":true,"pp":true,"qq":true,"rr":true,"sd":false,"ss":true,"tg":true,"tn":true,"tx":true},{"id":24071,"name":"HOHE WAND/HOCHKOGELHAUS","country":"AT","lat":47.8219,"lon":16.035,"height":936,"cc":true,"dd":true,"fg":true,"fx":true,"hu":true,"pp":true,"qq":true,"rr":true,"sd":false,"ss":true,"tg":true,"tn":true,"tx":true},{"id":24074,"name":"WR.NEUSTADT/FLUGPLATZ","country":"AT","lat":47.8317,"lon":16.2308,"height":275,"cc":true,"dd":true,"fg":true,"fx":true,"hu":true,"pp":true,"qq":true,"rr":true,"sd":false,"ss":true,"tg":true,"tn":true,"tx":true},{"id":24077,"name":"GUTENSTEIN/MARIAHILFBERG","country":"AT","lat":47.8708,"lon":15.8756,"height":708,"cc":true,"dd":true,"fg":true,"fx":true,"hu":true,"pp":true,"qq":false,"rr":true,"sd":false,"ss":true,"tg":true,"tn":true,"tx":true},{"id":24078,"name":"BERNDORF","country":"AT","lat":47.9392,"lon":16.1006,"height":337,"cc":true,"dd":true,"fg":true,"fx":true,"hu":true,"pp":true,"qq":true,"rr":true,"sd":false,"ss":true,"tg":true,"tn":true,"tx":true},{"id":24081,"name":"EISENSTADT-NORDOST","country":"AT","lat":47.8542,"lon":16.5381,"height":184,"cc":true,"dd":true,"fg":true,"fx":true,"hu":true,"pp":true,"qq":true,"rr":true,"sd":false,"ss":true,"tg":true,"tn":true,"tx":true},{"id":24086,"name":"NEUSIEDL AM SEE","country":"AT","lat":47.9506,"lon":16.8417,"height":148,"cc":true,"dd":true,"fg":true,"fx":true,"hu":true,"pp":true,"qq":true,"rr":true,"sd":false,"ss":true,"tg":true,"tn":true,"tx":true},{"id":24087,"name":"PODERSDORF","country":"AT","lat":47.8658,"lon":16.8342,"height":116,"cc":false,"dd":true,"fg":true,"fx":true,"hu":true,"pp":false,"qq":false,"rr":true,"sd":false,"ss":true,"tg":true,"tn":true,"tx":true},{"id":24088,"name":"ANDAU  ALT","country":"AT","lat":47.7719,"lon":17.0331,"height":118,"cc":true,"dd":true,"fg":true,"fx":true,"hu":true,"pp":true,"qq":true,"rr":true,"sd":false,"ss":true,"tg":true,"tn":true,"tx":true},{"id":24089,"name":"SULZBERG","country":"AT","lat":47.5217,"lon":9.9142,"height":1015,"cc":true,"dd":true,"fg":true,"fx":true,"hu":false,"pp":false,"qq":false,"rr":true,"sd":false,"ss":false,"tg":false,"tn":false,"tx":false},{"id":24094,"name":"KOESSEN","country":"AT","lat":47.6625,"lon":12.3933,"height":588,"cc":true,"dd":true,"fg":true,"fx":true,"hu":true,"pp":true,"qq":true,"rr":true,"sd":false,"ss":true,"tg":true,"tn":true,"tx":true},{"id":24096,"name":"LOFERER ALM","country":"AT","lat":47.5978,"lon":12.6456,"height":1619,"cc":false,"dd":true,"fg":true,"fx":true,"hu":true,"pp":true,"qq":true,"rr":true,"sd":false,"ss":true,"tg":true,"tn":true,"tx":true},{"id":24098,"name":"ABTENAU","country":"AT","lat":47.5664,"lon":13.3431,"height":709,"cc":true,"dd":true,"fg":true,"fx":true,"hu":true,"pp":true,"qq":true,"rr":true,"sd":false,"ss":true,"tg":true,"tn":true,"tx":true},{"id":24100,"name":"KRIPPENSTEIN","country":"AT","lat":47.5164,"lon":13.7,"height":2050,"cc":false,"dd":false,"fg":false,"fx":false,"hu":false,"pp":false,"qq":true,"rr":false,"sd":false,"ss":false,"tg":false,"tn":false,"tx":false},{"id":24101,"name":"AIGEN/ENNSTAL","country":"AT","lat":47.5325,"lon":14.1381,"height":641,"cc":true,"dd":true,"fg":true,"fx":true,"hu":true,"pp":true,"qq":true,"rr":true,"sd":false,"ss":true,"tg":true,"tn":true,"tx":true},{"id":24107,"name":"MOOSLANDL","country":"AT","lat":47.6469,"lon":14.7614,"height":530,"cc":true,"dd":true,"fg":true,"fx":true,"hu":true,"pp":true,"qq":true,"rr":true,"sd":false,"ss":true,"tg":true,"tn":true,"tx":true},{"id":24111,"name":"PRAEBICHL","country":"AT","lat":47.5217,"lon":14.9539,"height":1215,"cc":false,"dd":true,"fg":true,"fx":true,"hu":true,"pp":true,"qq":true,"rr":true,"sd":false,"ss":true,"tg":true,"tn":true,"tx":true},{"id":24114,"name":"RAX/SEILBAHNBERGSTATION","country":"AT","lat":47.7169,"lon":15.7781,"height":1547,"cc":true,"dd":true,"fg":true,"fx":true,"hu":true,"pp":true,"qq":true,"rr":true,"sd":false,"ss":true,"tg":true,"tn":true,"tx":true},{"id":24115,"name":"SEMMERING","country":"AT","lat":47.6331,"lon":15.8281,"height":988,"cc":true,"dd":true,"fg":true,"fx":true,"hu":true,"pp":true,"qq":true,"rr":true,"sd":false,"ss":true,"tg":true,"tn":true,"tx":true},{"id":24118,"name":"MOENICHKIRCHEN","country":"AT","lat":47.5108,"lon":16.0331,"height":991,"cc":true,"dd":true,"fg":true,"fx":true,"hu":true,"pp":true,"qq":true,"rr":true,"sd":false,"ss":true,"tg":true,"tn":true,"tx":true},{"id":24119,"name":"MOENICHKIRCHEN","country":"AT","lat":47.5,"lon":16.0494,"height":980,"cc":false,"dd":false,"fg":false,"fx":false,"hu":false,"pp":false,"qq":true,"rr":false,"sd":false,"ss":false,"tg":false,"tn":false,"tx":false},{"id":24122,"name":"REICHENAU/RAX","country":"AT","lat":47.6992,"lon":15.8367,"height":488,"cc":true,"dd":true,"fg":true,"fx":true,"hu":true,"pp":true,"qq":true,"rr":true,"sd":false,"ss":true,"tg":true,"tn":true,"tx":true},{"id":24124,"name":"POTTSCHACH","country":"AT","lat":47.7006,"lon":16.0078,"height":416,"cc":true,"dd":true,"fg":true,"fx":true,"hu":true,"pp":true,"qq":true,"rr":true,"sd":false,"ss":true,"tg":true,"tn":true,"tx":true},{"id":24125,"name":"HIRSCHENKOGEL","country":"AT","lat":47.6231,"lon":15.8331,"height":1318,"cc":false,"dd":true,"fg":true,"fx":true,"hu":true,"pp":true,"qq":true,"rr":true,"sd":false,"ss":true,"tg":true,"tn":true,"tx":true},{"id":24129,"name":"ASPANG","country":"AT","lat":47.575,"lon":16.1014,"height":454,"cc":true,"dd":true,"fg":true,"fx":true,"hu":true,"pp":true,"qq":true,"rr":true,"sd":false,"ss":true,"tg":true,"tn":true,"tx":true},{"id":24131,"name":"MATTERSBURG","country":"AT","lat":47.7444,"lon":16.3889,"height":283,"cc":true,"dd":true,"fg":true,"fx":true,"hu":true,"pp":true,"qq":true,"rr":true,"sd":false,"ss":true,"tg":true,"tn":true,"tx":true},{"id":24134,"name":"BREGENZ","country":"AT","lat":47.4992,"lon":9.7456,"height":424,"cc":true,"dd":true,"fg":true,"fx":true,"hu":true,"pp":true,"qq":false,"rr":true,"sd":false,"ss":true,"tg":true,"tn":true,"tx":true},{"id":24135,"name":"BREGENZ","country":"AT","lat":47.4992,"lon":9.7456,"height":424,"cc":false,"dd":true,"fg":true,"fx":true,"hu":true,"pp":true,"qq":true,"rr":true,"sd":false,"ss":true,"tg":true,"tn":true,"tx":true},{"id":24137,"name":"FRAXERN","country":"AT","lat":47.3142,"lon":9.6742,"height":807,"cc":true,"dd":true,"fg":true,"fx":true,"hu":true,"pp":true,"qq":true,"rr":true,"sd":false,"ss":true,"tg":true,"tn":true,"tx":true},{"id":24139,"name":"FELDKIRCH","country":"AT","lat":47.2664,"lon":9.6,"height":439,"cc":false,"dd":false,"fg":false,"fx":false,"hu":false,"pp":false,"qq":true,"rr":false,"sd":false,"ss":false,"tg":false,"tn":false,"tx":false},{"id":24140,"name":"DORNBIRN","country":"AT","lat":47.4319,"lon":9.7253,"height":407,"cc":true,"dd":true,"fg":true,"fx":true,"hu":true,"pp":true,"qq":true,"rr":true,"sd":false,"ss":true,"tg":true,"tn":true,"tx":true},{"id":24141,"name":"FELDKIRCH","country":"AT","lat":47.2706,"lon":9.6092,"height":438,"cc":true,"dd":true,"fg":true,"fx":true,"hu":true,"pp":true,"qq":true,"rr":true,"sd":false,"ss":true,"tg":true,"tn":true,"tx":true},{"id":24144,"name":"ALBERSCHWENDE","country":"AT","lat":47.4575,"lon":9.8481,"height":715,"cc":true,"dd":true,"fg":true,"fx":true,"hu":true,"pp":true,"qq":true,"rr":true,"sd":false,"ss":true,"tg":true,"tn":true,"tx":true},{"id":24145,"name":"ROHRSPITZ","country":"AT","lat":47.4969,"lon":9.63,"height":395,"cc":false,"dd":true,"fg":true,"fx":true,"hu":true,"pp":true,"qq":true,"rr":true,"sd":false,"ss":true,"tg":true,"tn":true,"tx":true},{"id":24146,"name":"SCHOPPERNAU","country":"AT","lat":47.3106,"lon":10.0181,"height":835,"cc":true,"dd":true,"fg":true,"fx":true,"hu":true,"pp":false,"qq":false,"rr":true,"sd":false,"ss":true,"tg":true,"tn":true,"tx":true},{"id":24148,"name":"SCHOPPERNAU","country":"AT","lat":47.3114,"lon":10.0175,"height":839,"cc":false,"dd":true,"fg":true,"fx":true,"hu":true,"pp":true,"qq":true,"rr":true,"sd":false,"ss":true,"tg":true,"tn":true,"tx":true},{"id":24150,"name":"SCHROECKEN","country":"AT","lat":47.2628,"lon":10.0853,"height":1263,"cc":true,"dd":true,"fg":true,"fx":true,"hu":true,"pp":false,"qq":false,"rr":true,"sd":false,"ss":false,"tg":true,"tn":true,"tx":true},{"id":24151,"name":"SCHROECKEN","country":"AT","lat":47.2614,"lon":10.0856,"height":1244,"cc":false,"dd":true,"fg":true,"fx":true,"hu":true,"pp":true,"qq":true,"rr":true,"sd":false,"ss":true,"tg":true,"tn":true,"tx":true},{"id":24152,"name":"WARTH","country":"AT","lat":47.2556,"lon":10.1856,"height":1478,"cc":true,"dd":true,"fg":true,"fx":true,"hu":true,"pp":true,"qq":true,"rr":true,"sd":false,"ss":true,"tg":true,"tn":true,"tx":true},{"id":24153,"name":"WARTH","country":"AT","lat":47.2567,"lon":10.1853,"height":1475,"cc":true,"dd":true,"fg":true,"fx":true,"hu":false,"pp":false,"qq":false,"rr":true,"sd":false,"ss":false,"tg":false,"tn":false,"tx":false},{"id":24155,"name":"MITTELBERG","country":"AT","lat":47.3231,"lon":10.1525,"height":1204,"cc":false,"dd":true,"fg":true,"fx":true,"hu":true,"pp":false,"qq":true,"rr":true,"sd":false,"ss":true,"tg":true,"tn":true,"tx":true},{"id":24157,"name":"HOLZGAU","country":"AT","lat":47.2625,"lon":10.3417,"height":1080,"cc":true,"dd":true,"fg":true,"fx":true,"hu":true,"pp":false,"qq":false,"rr":true,"sd":false,"ss":false,"tg":true,"tn":true,"tx":true},{"id":24158,"name":"HOLZGAU","country":"AT","lat":47.2575,"lon":10.3381,"height":1092,"cc":false,"dd":true,"fg":true,"fx":true,"hu":true,"pp":true,"qq":true,"rr":true,"sd":false,"ss":true,"tg":true,"tn":true,"tx":true},{"id":24159,"name":"TANNHEIM","country":"AT","lat":47.5003,"lon":10.5056,"height":1100,"cc":true,"dd":true,"fg":true,"fx":true,"hu":true,"pp":true,"qq":true,"rr":true,"sd":false,"ss":true,"tg":true,"tn":true,"tx":true},{"id":24161,"name":"REUTTE","country":"AT","lat":47.4942,"lon":10.7153,"height":841,"cc":true,"dd":true,"fg":true,"fx":true,"hu":true,"pp":true,"qq":true,"rr":true,"sd":false,"ss":true,"tg":true,"tn":true,"tx":true},{"id":24162,"name":"REUTTE","country":"AT","lat":47.4944,"lon":10.7153,"height":850,"cc":true,"dd":true,"fg":true,"fx":true,"hu":false,"pp":false,"qq":false,"rr":true,"sd":false,"ss":false,"tg":false,"tn":false,"tx":false},{"id":24165,"name":"EHRWALD","country":"AT","lat":47.4044,"lon":10.9203,"height":960,"cc":true,"dd":true,"fg":true,"fx":true,"hu":true,"pp":false,"qq":false,"rr":true,"sd":false,"ss":false,"tg":true,"tn":true,"tx":true},{"id":24166,"name":"EHRWALD","country":"AT","lat":47.4042,"lon":10.92,"height":982,"cc":false,"dd":true,"fg":true,"fx":true,"hu":true,"pp":true,"qq":true,"rr":true,"sd":false,"ss":true,"tg":true,"tn":true,"tx":true},{"id":24169,"name":"SEEFELD","country":"AT","lat":47.3242,"lon":11.1753,"height":1181,"cc":true,"dd":true,"fg":true,"fx":true,"hu":true,"pp":true,"qq":true,"rr":true,"sd":false,"ss":true,"tg":true,"tn":true,"tx":true},{"id":24170,"name":"INNSBRUCK-FLUGPLATZ","country":"AT","lat":47.2583,"lon":11.3553,"height":579,"cc":true,"dd":true,"fg":true,"fx":true,"hu":true,"pp":true,"qq":true,"rr":true,"sd":false,"ss":false,"tg":true,"tn":true,"tx":true},{"id":24173,"name":"INNSBRUCK-FLUGPLATZ","country":"AT","lat":47.2594,"lon":11.3567,"height":578,"cc":true,"dd":true,"fg":true,"fx":true,"hu":true,"pp":true,"qq":true,"rr":true,"sd":false,"ss":true,"tg":true,"tn":true,"tx":true},{"id":24178,"name":"JENBACH","country":"AT","lat":47.3894,"lon":11.7553,"height":530,"cc":true,"dd":true,"fg":true,"fx":true,"hu":false,"pp":false,"qq":false,"rr":true,"sd":false,"ss":false,"tg":false,"tn":false,"tx":false},{"id":24182,"name":"ALPBACH","country":"AT","lat":47.3967,"lon":11.9403,"height":929,"cc":true,"dd":true,"fg":true,"fx":true,"hu":true,"pp":true,"qq":true,"rr":true,"sd":false,"ss":true,"tg":true,"tn":true,"tx":true},{"id":24183,"name":"ALPBACH","country":"AT","lat":47.3964,"lon":11.9406,"height":930,"cc":false,"dd":true,"fg":true,"fx":true,"hu":false,"pp":false,"qq":false,"rr":true,"sd":false,"ss":false,"tg":false,"tn":false,"tx":false},{"id":24188,"name":"KITZBUEHEL","country":"AT","lat":47.4439,"lon":12.3892,"height":772,"cc":false,"dd":true,"fg":true,"fx":true,"hu":true,"pp":true,"qq":true,"rr":true,"sd":false,"ss":true,"tg":true,"tn":true,"tx":true},{"id":24194,"name":"HAHNENKAMM-EHRENBACHHOEHE","country":"AT","lat":47.4181,"lon":12.3592,"height":1793,"cc":true,"dd":true,"fg":true,"fx":true,"hu":true,"pp":true,"qq":true,"rr":true,"sd":false,"ss":true,"tg":true,"tn":true,"tx":true},{"id":24198,"name":"SAALBACH","country":"AT","lat":47.3878,"lon":12.6481,"height":975,"cc":true,"dd":true,"fg":true,"fx":true,"hu":true,"pp":true,"qq":true,"rr":true,"sd":false,"ss":true,"tg":true,"tn":true,"tx":true},{"id":24199,"name":"SCHMITTENHOEHE","country":"AT","lat":47.3281,"lon":12.7378,"height":1956,"cc":true,"dd":true,"fg":true,"fx":true,"hu":true,"pp":true,"qq":true,"rr":true,"sd":false,"ss":true,"tg":true,"tn":true,"tx":true},{"id":24213,"name":"FROHNLEITEN","country":"AT","lat":47.2553,"lon":15.315,"height":421,"cc":false,"dd":true,"fg":true,"fx":true,"hu":true,"pp":true,"qq":true,"rr":true,"sd":false,"ss":true,"tg":true,"tn":true,"tx":true},{"id":24225,"name":"LANGEN AM ARLBERG","country":"AT","lat":47.1344,"lon":10.1242,"height":1270,"cc":true,"dd":true,"fg":true,"fx":true,"hu":true,"pp":false,"qq":false,"rr":true,"sd":false,"ss":true,"tg":true,"tn":true,"tx":true},{"id":24228,"name":"IMST","country":"AT","lat":47.2489,"lon":10.7406,"height":860,"cc":true,"dd":true,"fg":true,"fx":true,"hu":true,"pp":false,"qq":false,"rr":true,"sd":false,"ss":false,"tg":true,"tn":true,"tx":true},{"id":24230,"name":"HAIMING","country":"AT","lat":47.2581,"lon":10.8792,"height":663,"cc":true,"dd":true,"fg":true,"fx":true,"hu":true,"pp":false,"qq":false,"rr":true,"sd":false,"ss":false,"tg":true,"tn":true,"tx":true},{"id":24232,"name":"ST.LEONHARD-NEURUR","country":"AT","lat":47.0217,"lon":10.8642,"height":1462,"cc":true,"dd":true,"fg":true,"fx":true,"hu":true,"pp":false,"qq":false,"rr":true,"sd":false,"ss":false,"tg":true,"tn":true,"tx":true},{"id":24233,"name":"UMHAUSEN","country":"AT","lat":47.1392,"lon":10.9289,"height":1035,"cc":true,"dd":true,"fg":true,"fx":true,"hu":true,"pp":true,"qq":true,"rr":true,"sd":false,"ss":true,"tg":true,"tn":true,"tx":true},{"id":24236,"name":"PATSCHERKOFEL","country":"AT","lat":47.2089,"lon":11.4617,"height":2251,"cc":false,"dd":true,"fg":true,"fx":true,"hu":true,"pp":true,"qq":true,"rr":true,"sd":false,"ss":true,"tg":true,"tn":true,"tx":true},{"id":24237,"name":"RINN","country":"AT","lat":47.2492,"lon":11.5039,"height":924,"cc":false,"dd":true,"fg":true,"fx":true,"hu":true,"pp":true,"qq":true,"rr":true,"sd":false,"ss":true,"tg":true,"tn":true,"tx":true},{"id":24238,"name":"SCHMIRN","country":"AT","lat":47.0869,"lon":11.58,"height":1464,"cc":false,"dd":true,"fg":true,"fx":true,"hu":true,"pp":true,"qq":true,"rr":true,"sd":false,"ss":true,"tg":true,"tn":true,"tx":true},{"id":24240,"name":"MAYRHOFEN","country":"AT","lat":47.1592,"lon":11.8503,"height":643,"cc":true,"dd":true,"fg":true,"fx":true,"hu":true,"pp":true,"qq":true,"rr":true,"sd":false,"ss":true,"tg":true,"tn":true,"tx":true},{"id":24248,"name":"KOLM SAIGURN","country":"AT","lat":47.0692,"lon":12.9842,"height":1626,"cc":false,"dd":true,"fg":true,"fx":true,"hu":true,"pp":true,"qq":true,"rr":true,"sd":false,"ss":true,"tg":true,"tn":true,"tx":true},{"id":24251,"name":"OBERTAUERN","country":"AT","lat":47.2489,"lon":13.5592,"height":1772,"cc":true,"dd":true,"fg":true,"fx":true,"hu":true,"pp":true,"qq":true,"rr":true,"sd":false,"ss":true,"tg":true,"tn":true,"tx":true},{"id":24255,"name":"KATSCHBERG","country":"AT","lat":47.0603,"lon":13.6142,"height":1635,"cc":false,"dd":true,"fg":true,"fx":true,"hu":true,"pp":true,"qq":true,"rr":true,"sd":false,"ss":true,"tg":true,"tn":true,"tx":true},{"id":24261,"name":"NEUMARKT","country":"AT","lat":47.0692,"lon":14.4244,"height":869,"cc":true,"dd":true,"fg":true,"fx":true,"hu":true,"pp":true,"qq":true,"rr":true,"sd":false,"ss":true,"tg":true,"tn":true,"tx":true},{"id":24263,"name":"GRAZ-FLUGHAFEN","country":"AT","lat":46.9806,"lon":15.44,"height":340,"cc":true,"dd":true,"fg":true,"fx":true,"hu":true,"pp":true,"qq":true,"rr":true,"sd":false,"ss":true,"tg":true,"tn":true,"tx":true},{"id":24267,"name":"GRAZ/STRASSGANG","country":"AT","lat":47.0458,"lon":15.41,"height":357,"cc":false,"dd":true,"fg":true,"fx":true,"hu":true,"pp":true,"qq":true,"rr":true,"sd":false,"ss":true,"tg":true,"tn":true,"tx":true},{"id":24269,"name":"SCHOECKL","country":"AT","lat":47.1983,"lon":15.4664,"height":1443,"cc":true,"dd":true,"fg":true,"fx":true,"hu":true,"pp":true,"qq":true,"rr":true,"sd":false,"ss":true,"tg":true,"tn":true,"tx":true},{"id":24272,"name":"GLEISDORF","country":"AT","lat":47.1153,"lon":15.7078,"height":377,"cc":true,"dd":true,"fg":true,"fx":true,"hu":true,"pp":true,"qq":true,"rr":true,"sd":false,"ss":true,"tg":true,"tn":true,"tx":true},{"id":24276,"name":"FUERSTENFELD","country":"AT","lat":47.0306,"lon":16.0806,"height":271,"cc":true,"dd":true,"fg":true,"fx":true,"hu":true,"pp":true,"qq":true,"rr":true,"sd":false,"ss":true,"tg":true,"tn":true,"tx":true},{"id":24279,"name":"GUESSING","country":"AT","lat":47.0625,"lon":16.3217,"height":215,"cc":true,"dd":true,"fg":true,"fx":true,"hu":true,"pp":true,"qq":true,"rr":true,"sd":false,"ss":true,"tg":true,"tn":true,"tx":true},{"id":24281,"name":"WOERTERBERG","country":"AT","lat":47.2258,"lon":16.0964,"height":404,"cc":true,"dd":true,"fg":true,"fx":true,"hu":true,"pp":true,"qq":true,"rr":true,"sd":false,"ss":true,"tg":true,"tn":true,"tx":true},{"id":24282,"name":"KLEINZICKEN","country":"AT","lat":47.2075,"lon":16.3356,"height":265,"cc":true,"dd":true,"fg":true,"fx":true,"hu":true,"pp":true,"qq":true,"rr":true,"sd":false,"ss":true,"tg":true,"tn":true,"tx":true},{"id":24288,"name":"GALTUER","country":"AT","lat":46.9681,"lon":10.1853,"height":1587,"cc":true,"dd":true,"fg":true,"fx":true,"hu":true,"pp":true,"qq":true,"rr":true,"sd":false,"ss":true,"tg":true,"tn":true,"tx":true},{"id":24289,"name":"GALTUER","country":"AT","lat":46.9642,"lon":10.1892,"height":1615,"cc":true,"dd":false,"fg":true,"fx":true,"hu":false,"pp":false,"qq":false,"rr":true,"sd":false,"ss":false,"tg":false,"tn":false,"tx":false},{"id":24290,"name":"ISCHGL-IDALPE","country":"AT","lat":46.9817,"lon":10.3169,"height":2323,"cc":true,"dd":true,"fg":true,"fx":true,"hu":false,"pp":false,"qq":false,"rr":true,"sd":false,"ss":false,"tg":false,"tn":false,"tx":false},{"id":24293,"name":"NAUDERS","country":"AT","lat":46.8906,"lon":10.4967,"height":1330,"cc":true,"dd":true,"fg":true,"fx":true,"hu":true,"pp":true,"qq":true,"rr":true,"sd":false,"ss":true,"tg":true,"tn":true,"tx":true},{"id":24295,"name":"OBERGURGL","country":"AT","lat":46.8667,"lon":11.0242,"height":1941,"cc":true,"dd":true,"fg":true,"fx":true,"hu":true,"pp":true,"qq":true,"rr":true,"sd":false,"ss":true,"tg":true,"tn":true,"tx":true},{"id":24298,"name":"PITZTALER GLETSCHER","country":"AT","lat":46.9267,"lon":10.8792,"height":2863,"cc":true,"dd":true,"fg":true,"fx":true,"hu":true,"pp":true,"qq":true,"rr":true,"sd":false,"ss":true,"tg":true,"tn":true,"tx":true},{"id":24299,"name":"BRUNNENKOGEL","country":"AT","lat":46.9125,"lon":10.8617,"height":3437,"cc":false,"dd":true,"fg":true,"fx":true,"hu":true,"pp":true,"qq":true,"rr":true,"sd":false,"ss":true,"tg":true,"tn":true,"tx":true},{"id":24301,"name":"ST.JAKOB/DEF.","country":"AT","lat":46.9167,"lon":12.3539,"height":1383,"cc":true,"dd":true,"fg":true,"fx":true,"hu":true,"pp":true,"qq":true,"rr":true,"sd":false,"ss":true,"tg":true,"tn":true,"tx":true},{"id":24303,"name":"LIENZ","country":"AT","lat":46.8253,"lon":12.8064,"height":661,"cc":true,"dd":true,"fg":true,"fx":true,"hu":true,"pp":true,"qq":true,"rr":true,"sd":false,"ss":true,"tg":true,"tn":true,"tx":true},{"id":24305,"name":"DOELLACH","country":"AT","lat":46.9581,"lon":12.9025,"height":1071,"cc":false,"dd":true,"fg":true,"fx":true,"hu":true,"pp":true,"qq":true,"rr":true,"sd":false,"ss":true,"tg":true,"tn":true,"tx":true},{"id":24310,"name":"OBERVELLACH","country":"AT","lat":46.935,"lon":13.1942,"height":688,"cc":false,"dd":true,"fg":true,"fx":true,"hu":true,"pp":true,"qq":true,"rr":true,"sd":false,"ss":true,"tg":true,"tn":true,"tx":true},{"id":24313,"name":"FLATTNITZ","country":"AT","lat":46.9406,"lon":14.0356,"height":1437,"cc":true,"dd":true,"fg":true,"fx":true,"hu":true,"pp":true,"qq":true,"rr":true,"sd":false,"ss":true,"tg":true,"tn":true,"tx":true},{"id":24321,"name":"BAD GLEICHENBERG","country":"AT","lat":46.8719,"lon":15.9031,"height":269,"cc":true,"dd":true,"fg":true,"fx":true,"hu":true,"pp":true,"qq":true,"rr":true,"sd":false,"ss":true,"tg":true,"tn":true,"tx":true},{"id":24322,"name":"FELDBACH","country":"AT","lat":46.9489,"lon":15.8794,"height":323,"cc":true,"dd":true,"fg":true,"fx":true,"hu":true,"pp":true,"qq":true,"rr":true,"sd":false,"ss":true,"tg":true,"tn":true,"tx":true},{"id":24329,"name":"HERMAGOR","country":"AT","lat":46.6092,"lon":13.4917,"height":562,"cc":false,"dd":true,"fg":true,"fx":true,"hu":true,"pp":true,"qq":true,"rr":true,"sd":false,"ss":true,"tg":true,"tn":true,"tx":true},{"id":24332,"name":"BAD BLEIBERG","country":"AT","lat":46.6253,"lon":13.6842,"height":908,"cc":true,"dd":true,"fg":true,"fx":true,"hu":true,"pp":true,"qq":true,"rr":true,"sd":false,"ss":true,"tg":true,"tn":true,"tx":true},{"id":24334,"name":"VILLACHER ALPE","country":"AT","lat":46.6031,"lon":13.6731,"height":2140,"cc":true,"dd":true,"fg":true,"fx":true,"hu":true,"pp":true,"qq":false,"rr":true,"sd":false,"ss":true,"tg":true,"tn":true,"tx":true},{"id":24335,"name":"VILLACHER ALPE","country":"AT","lat":46.6031,"lon":13.6728,"height":2117,"cc":false,"dd":true,"fg":true,"fx":true,"hu":true,"pp":true,"qq":true,"rr":true,"sd":false,"ss":true,"tg":true,"tn":true,"tx":true},{"id":24337,"name":"KANZELHOEHE","country":"AT","lat":46.6769,"lon":13.9017,"height":1520,"cc":true,"dd":true,"fg":true,"fx":true,"hu":true,"pp":true,"qq":true,"rr":true,"sd":false,"ss":true,"tg":true,"tn":true,"tx":true},{"id":24339,"name":"ARRIACH","country":"AT","lat":46.7278,"lon":13.8525,"height":890,"cc":true,"dd":true,"fg":true,"fx":true,"hu":true,"pp":true,"qq":true,"rr":true,"sd":false,"ss":true,"tg":true,"tn":true,"tx":true},{"id":24348,"name":"FERLACH","country":"AT","lat":46.5308,"lon":14.3142,"height":459,"cc":true,"dd":true,"fg":true,"fx":true,"hu":true,"pp":true,"qq":true,"rr":true,"sd":false,"ss":true,"tg":true,"tn":true,"tx":true},{"id":24353,"name":"KLAGENFURT-FLUGHAFEN","country":"AT","lat":46.6481,"lon":14.3181,"height":450,"cc":true,"dd":true,"fg":true,"fx":true,"hu":true,"pp":true,"qq":true,"rr":true,"sd":false,"ss":true,"tg":true,"tn":true,"tx":true},{"id":24356,"name":"FELDKIRCHEN","country":"AT","lat":46.7217,"lon":14.0967,"height":546,"cc":false,"dd":true,"fg":true,"fx":true,"hu":true,"pp":true,"qq":true,"rr":true,"sd":false,"ss":true,"tg":true,"tn":true,"tx":true},{"id":24367,"name":"FEISTRITZ OB BLEIBURG","country":"AT","lat":46.5583,"lon":14.7664,"height":532,"cc":true,"dd":true,"fg":true,"fx":true,"hu":true,"pp":true,"qq":true,"rr":true,"sd":false,"ss":true,"tg":true,"tn":true,"tx":true},{"id":24374,"name":"BAD EISENKAPPEL","country":"AT","lat":46.4903,"lon":14.5931,"height":623,"cc":true,"dd":true,"fg":true,"fx":true,"hu":true,"pp":true,"qq":true,"rr":true,"sd":false,"ss":true,"tg":true,"tn":true,"tx":true},{"id":24376,"name":"SEEFELD","country":"AT","lat":47.3278,"lon":11.1781,"height":1198,"cc":true,"dd":true,"fg":true,"fx":true,"hu":false,"pp":false,"qq":false,"rr":true,"sd":false,"ss":false,"tg":false,"tn":false,"tx":false},{"id":24377,"name":"VOELKERMARKT-GOLDBRUNNHOF","country":"AT","lat":46.6706,"lon":14.6392,"height":466,"cc":false,"dd":true,"fg":true,"fx":true,"hu":true,"pp":true,"qq":true,"rr":true,"sd":false,"ss":true,"tg":true,"tn":true,"tx":true},{"id":24379,"name":"JAUERLING/ORF","country":"AT","lat":48.3342,"lon":15.3392,"height":955,"cc":false,"dd":true,"fg":true,"fx":true,"hu":true,"pp":true,"qq":true,"rr":true,"sd":false,"ss":true,"tg":true,"tn":true,"tx":true},{"id":24383,"name":"KREMS","country":"AT","lat":48.4181,"lon":15.6217,"height":202,"cc":true,"dd":true,"fg":true,"fx":true,"hu":true,"pp":true,"qq":true,"rr":true,"sd":false,"ss":true,"tg":true,"tn":true,"tx":true},{"id":24385,"name":"LANGENLOIS","country":"AT","lat":48.4725,"lon":15.6967,"height":207,"cc":true,"dd":true,"fg":true,"fx":true,"hu":true,"pp":true,"qq":true,"rr":true,"sd":false,"ss":true,"tg":true,"tn":true,"tx":true},{"id":24386,"name":"ZWERNDORF","country":"AT","lat":48.3378,"lon":16.8308,"height":144,"cc":true,"dd":true,"fg":true,"fx":true,"hu":true,"pp":true,"qq":true,"rr":true,"sd":false,"ss":true,"tg":true,"tn":true,"tx":true},{"id":24387,"name":"GAENSERNDORF-STADT","country":"AT","lat":48.3375,"lon":16.7133,"height":163,"cc":true,"dd":true,"fg":true,"fx":true,"hu":true,"pp":true,"qq":true,"rr":true,"sd":false,"ss":true,"tg":true,"tn":true,"tx":true},{"id":24388,"name":"STOCKERAU","country":"AT","lat":48.3967,"lon":16.1919,"height":203,"cc":true,"dd":true,"fg":true,"fx":true,"hu":true,"pp":true,"qq":true,"rr":true,"sd":false,"ss":true,"tg":true,"tn":true,"tx":true},{"id":24393,"name":"WIEN/STAMMERSDORF","country":"AT","lat":48.3056,"lon":16.4056,"height":191,"cc":true,"dd":true,"fg":true,"fx":true,"hu":true,"pp":true,"qq":true,"rr":true,"sd":false,"ss":true,"tg":true,"tn":true,"tx":true},{"id":24394,"name":"WOLKERSDORF","country":"AT","lat":48.3803,"lon":16.5075,"height":185,"cc":false,"dd":true,"fg":true,"fx":true,"hu":true,"pp":true,"qq":true,"rr":true,"sd":false,"ss":true,"tg":true,"tn":true,"tx":true},{"id":24401,"name":"BRUNN AM GEBIRGE","country":"AT","lat":48.1067,"lon":16.27,"height":290,"cc":false,"dd":true,"fg":true,"fx":true,"hu":true,"pp":true,"qq":true,"rr":true,"sd":false,"ss":true,"tg":true,"tn":true,"tx":true},{"id":24408,"name":"WIEN-INNERE STADT","country":"AT","lat":48.1981,"lon":16.3667,"height":177,"cc":false,"dd":true,"fg":true,"fx":true,"hu":true,"pp":true,"qq":true,"rr":true,"sd":false,"ss":true,"tg":true,"tn":true,"tx":true},{"id":24411,"name":"GROSS-ENZERSDORF","country":"AT","lat":48.1992,"lon":16.5589,"height":154,"cc":true,"dd":true,"fg":true,"fx":true,"hu":true,"pp":true,"qq":true,"rr":true,"sd":false,"ss":true,"tg":true,"tn":true,"tx":true},{"id":24412,"name":"GARS/KAMP","country":"AT","lat":48.5917,"lon":15.7,"height":273,"cc":true,"dd":true,"fg":true,"fx":true,"hu":true,"pp":true,"qq":true,"rr":true,"sd":false,"ss":true,"tg":true,"tn":true,"tx":true},{"id":24420,"name":"MATTSEE","country":"AT","lat":47.9767,"lon":13.1056,"height":502,"cc":true,"dd":true,"fg":true,"fx":true,"hu":true,"pp":true,"qq":true,"rr":true,"sd":false,"ss":true,"tg":true,"tn":true,"tx":true},{"id":24426,"name":"KOETSCHACH-MAUTHEN","country":"AT","lat":46.6758,"lon":12.9981,"height":705,"cc":true,"dd":true,"fg":true,"fx":true,"hu":true,"pp":true,"qq":true,"rr":true,"sd":false,"ss":true,"tg":true,"tn":true,"tx":true},{"id":24427,"name":"FEUERKOGEL","country":"AT","lat":47.8178,"lon":13.7181,"height":1618,"cc":false,"dd":false,"fg":false,"fx":false,"hu":false,"pp":false,"qq":true,"rr":false,"sd":false,"ss":false,"tg":false,"tn":false,"tx":false},{"id":24431,"name":"SILLIAN","country":"AT","lat":46.7458,"lon":12.4231,"height":1081,"cc":true,"dd":true,"fg":true,"fx":true,"hu":true,"pp":true,"qq":true,"rr":true,"sd":false,"ss":true,"tg":true,"tn":true,"tx":true},{"id":24439,"name":"DEUTSCHLANDSBERG","country":"AT","lat":46.8217,"lon":15.2267,"height":354,"cc":true,"dd":true,"fg":true,"fx":true,"hu":true,"pp":true,"qq":true,"rr":true,"sd":false,"ss":true,"tg":true,"tn":true,"tx":true},{"id":24442,"name":"PREITENEGG","country":"AT","lat":46.9381,"lon":14.915,"height":1034,"cc":true,"dd":true,"fg":true,"fx":true,"hu":true,"pp":true,"qq":true,"rr":true,"sd":false,"ss":true,"tg":true,"tn":true,"tx":true},{"id":24443,"name":"ST.ANDRAE/LAVANTTAL","country":"AT","lat":46.7642,"lon":14.8278,"height":403,"cc":true,"dd":true,"fg":true,"fx":true,"hu":true,"pp":true,"qq":true,"rr":true,"sd":false,"ss":true,"tg":true,"tn":true,"tx":true},{"id":24445,"name":"ST.VEIT/GLAN","country":"AT","lat":46.7389,"lon":14.3853,"height":463,"cc":false,"dd":true,"fg":true,"fx":true,"hu":true,"pp":true,"qq":true,"rr":true,"sd":false,"ss":true,"tg":true,"tn":true,"tx":true},{"id":24447,"name":"WEITENSFELD","country":"AT","lat":46.8492,"lon":14.1906,"height":704,"cc":true,"dd":true,"fg":true,"fx":true,"hu":true,"pp":true,"qq":true,"rr":true,"sd":false,"ss":true,"tg":true,"tn":true,"tx":true},{"id":24452,"name":"GMUEND","country":"AT","lat":46.9028,"lon":13.5339,"height":738,"cc":false,"dd":true,"fg":true,"fx":true,"hu":true,"pp":true,"qq":true,"rr":true,"sd":false,"ss":true,"tg":true,"tn":true,"tx":true},{"id":24453,"name":"SPITTAL/DRAU","country":"AT","lat":46.7903,"lon":13.4869,"height":542,"cc":false,"dd":true,"fg":true,"fx":true,"hu":true,"pp":true,"qq":true,"rr":true,"sd":false,"ss":true,"tg":true,"tn":true,"tx":true},{"id":24458,"name":"NEUDORF/LANDSEE","country":"AT","lat":47.5628,"lon":16.3814,"height":429,"cc":false,"dd":true,"fg":true,"fx":true,"hu":true,"pp":false,"qq":true,"rr":true,"sd":false,"ss":true,"tg":true,"tn":true,"tx":true},{"id":24468,"name":"HALL/ADMONT","country":"AT","lat":47.5942,"lon":14.4906,"height":637,"cc":true,"dd":true,"fg":true,"fx":true,"hu":true,"pp":true,"qq":true,"rr":true,"sd":false,"ss":true,"tg":true,"tn":true,"tx":true},{"id":24469,"name":"ROTTENMANN","country":"AT","lat":47.5078,"lon":14.4303,"height":707,"cc":false,"dd":true,"fg":true,"fx":true,"hu":true,"pp":true,"qq":true,"rr":true,"sd":false,"ss":true,"tg":true,"tn":true,"tx":true},{"id":24470,"name":"KIRCHDORF/TIROL","country":"AT","lat":47.5658,"lon":12.4631,"height":636,"cc":false,"dd":true,"fg":true,"fx":true,"hu":true,"pp":false,"qq":true,"rr":true,"sd":false,"ss":true,"tg":true,"tn":true,"tx":true},{"id":24471,"name":"KOESSEN","country":"AT","lat":47.6628,"lon":12.3933,"height":589,"cc":true,"dd":true,"fg":true,"fx":true,"hu":false,"pp":false,"qq":false,"rr":true,"sd":false,"ss":false,"tg":false,"tn":false,"tx":false},{"id":24474,"name":"LOFER/ORT","country":"AT","lat":47.5842,"lon":12.6953,"height":622,"cc":true,"dd":true,"fg":true,"fx":true,"hu":true,"pp":true,"qq":true,"rr":true,"sd":false,"ss":true,"tg":true,"tn":true,"tx":true},{"id":24476,"name":"GOLLING","country":"AT","lat":47.5906,"lon":13.1814,"height":490,"cc":false,"dd":true,"fg":true,"fx":true,"hu":true,"pp":true,"qq":true,"rr":true,"sd":false,"ss":true,"tg":true,"tn":true,"tx":true},{"id":24478,"name":"KOLLERSCHLAG","country":"AT","lat":48.6028,"lon":13.8392,"height":714,"cc":true,"dd":true,"fg":true,"fx":true,"hu":true,"pp":true,"qq":true,"rr":true,"sd":false,"ss":true,"tg":true,"tn":true,"tx":true},{"id":24480,"name":"ALLENTSTEIG","country":"AT","lat":48.6906,"lon":15.3667,"height":599,"cc":true,"dd":true,"fg":true,"fx":true,"hu":true,"pp":true,"qq":true,"rr":true,"sd":false,"ss":true,"tg":true,"tn":true,"tx":true},{"id":24483,"name":"LEISER BERGE","country":"AT","lat":48.5583,"lon":16.3714,"height":457,"cc":false,"dd":true,"fg":true,"fx":true,"hu":true,"pp":true,"qq":true,"rr":true,"sd":false,"ss":true,"tg":true,"tn":true,"tx":true},{"id":24486,"name":"REICHENAU/MUEHLKREIS","country":"AT","lat":48.4592,"lon":14.3453,"height":689,"cc":true,"dd":true,"fg":true,"fx":true,"hu":true,"pp":true,"qq":true,"rr":true,"sd":false,"ss":true,"tg":true,"tn":true,"tx":true},{"id":24503,"name":"PUCHBERG/SCHNEEBERG","country":"AT","lat":47.7903,"lon":15.9067,"height":583,"cc":true,"dd":true,"fg":true,"fx":true,"hu":true,"pp":true,"qq":true,"rr":true,"sd":false,"ss":true,"tg":true,"tn":true,"tx":true},{"id":24505,"name":"SEIBERSDORF","country":"AT","lat":47.9758,"lon":16.5044,"height":185,"cc":true,"dd":true,"fg":true,"fx":true,"hu":true,"pp":true,"qq":true,"rr":true,"sd":false,"ss":true,"tg":true,"tn":true,"tx":true},{"id":24507,"name":"FRIESACH","country":"AT","lat":46.9581,"lon":14.4056,"height":640,"cc":true,"dd":true,"fg":true,"fx":true,"hu":true,"pp":true,"qq":true,"rr":true,"sd":false,"ss":true,"tg":true,"tn":true,"tx":true},{"id":24512,"name":"VILLACH-STADT","country":"AT","lat":46.6181,"lon":13.8739,"height":493,"cc":true,"dd":true,"fg":true,"fx":true,"hu":true,"pp":true,"qq":true,"rr":true,"sd":false,"ss":true,"tg":true,"tn":true,"tx":true},{"id":24516,"name":"BAD RADKERSBURG","country":"AT","lat":46.6919,"lon":15.9931,"height":207,"cc":true,"dd":true,"fg":true,"fx":true,"hu":true,"pp":true,"qq":true,"rr":true,"sd":false,"ss":true,"tg":true,"tn":true,"tx":true},{"id":24517,"name":"LOIBL/TUNNEL","country":"AT","lat":46.4439,"lon":14.2489,"height":1097,"cc":true,"dd":true,"fg":true,"fx":true,"hu":true,"pp":true,"qq":true,"rr":true,"sd":false,"ss":true,"tg":true,"tn":true,"tx":true},{"id":24520,"name":"SULZBERG","country":"AT","lat":47.5217,"lon":9.9142,"height":1016,"cc":true,"dd":true,"fg":true,"fx":true,"hu":true,"pp":true,"qq":true,"rr":true,"sd":false,"ss":true,"tg":true,"tn":true,"tx":true},{"id":24525,"name":"KUFSTEIN","country":"AT","lat":47.5753,"lon":12.1628,"height":490,"cc":true,"dd":true,"fg":true,"fx":true,"hu":true,"pp":true,"qq":true,"rr":true,"sd":false,"ss":true,"tg":true,"tn":true,"tx":true},{"id":24534,"name":"BAD ISCHL","country":"AT","lat":47.7058,"lon":13.6469,"height":507,"cc":true,"dd":true,"fg":true,"fx":true,"hu":true,"pp":true,"qq":true,"rr":true,"sd":false,"ss":true,"tg":true,"tn":true,"tx":true},{"id":24536,"name":"BAD AUSSEE","country":"AT","lat":47.6103,"lon":13.7581,"height":743,"cc":true,"dd":true,"fg":true,"fx":true,"hu":true,"pp":true,"qq":false,"rr":true,"sd":false,"ss":true,"tg":true,"tn":true,"tx":true},{"id":24538,"name":"MUERZZUSCHLAG","country":"AT","lat":47.6017,"lon":15.6728,"height":705,"cc":true,"dd":true,"fg":true,"fx":true,"hu":true,"pp":true,"qq":true,"rr":true,"sd":false,"ss":true,"tg":true,"tn":true,"tx":true},{"id":24541,"name":"HOCHFILZEN","country":"AT","lat":47.47,"lon":12.6206,"height":960,"cc":false,"dd":true,"fg":true,"fx":true,"hu":false,"pp":false,"qq":false,"rr":true,"sd":false,"ss":false,"tg":false,"tn":false,"tx":false},{"id":24542,"name":"HOCHFILZEN","country":"AT","lat":47.47,"lon":12.6206,"height":962,"cc":false,"dd":true,"fg":true,"fx":true,"hu":true,"pp":true,"qq":true,"rr":true,"sd":false,"ss":true,"tg":true,"tn":true,"tx":true},{"id":24545,"name":"BISCHOFSHOFEN","country":"AT","lat":47.4064,"lon":13.2206,"height":550,"cc":true,"dd":true,"fg":true,"fx":true,"hu":true,"pp":true,"qq":true,"rr":true,"sd":false,"ss":true,"tg":true,"tn":true,"tx":true},{"id":24548,"name":"MURAU","country":"AT","lat":47.1106,"lon":14.1767,"height":816,"cc":true,"dd":true,"fg":true,"fx":true,"hu":true,"pp":true,"qq":true,"rr":true,"sd":false,"ss":true,"tg":true,"tn":true,"tx":true},{"id":24549,"name":"STOLZALPE","country":"AT","lat":47.1228,"lon":14.1881,"height":1291,"cc":false,"dd":true,"fg":true,"fx":true,"hu":true,"pp":true,"qq":true,"rr":true,"sd":false,"ss":true,"tg":true,"tn":true,"tx":true},{"id":24552,"name":"OBERWOELZ","country":"AT","lat":47.2017,"lon":14.2867,"height":842,"cc":false,"dd":true,"fg":true,"fx":true,"hu":true,"pp":true,"qq":true,"rr":true,"sd":false,"ss":true,"tg":true,"tn":true,"tx":true},{"id":24554,"name":"TAMSWEG","country":"AT","lat":47.1331,"lon":13.8081,"height":1025,"cc":true,"dd":true,"fg":true,"fx":true,"hu":true,"pp":true,"qq":true,"rr":true,"sd":false,"ss":true,"tg":true,"tn":true,"tx":true},{"id":24559,"name":"ST.MICHAEL/LUNGAU","country":"AT","lat":47.0942,"lon":13.6228,"height":1052,"cc":true,"dd":true,"fg":true,"fx":true,"hu":true,"pp":true,"qq":true,"rr":true,"sd":false,"ss":true,"tg":true,"tn":true,"tx":true},{"id":24561,"name":"BISCHOFSHOFEN-BUCHBERG","country":"AT","lat":47.4,"lon":13.2164,"height":733,"cc":true,"dd":true,"fg":true,"fx":true,"hu":false,"pp":false,"qq":false,"rr":true,"sd":false,"ss":false,"tg":false,"tn":false,"tx":false},{"id":24569,"name":"RADSTADT-TANDALIER","country":"AT","lat":47.38,"lon":13.4406,"height":835,"cc":false,"dd":true,"fg":true,"fx":true,"hu":true,"pp":true,"qq":true,"rr":true,"sd":false,"ss":true,"tg":true,"tn":true,"tx":true},{"id":24573,"name":"BAD HOFGASTEIN","country":"AT","lat":47.1617,"lon":13.1078,"height":842,"cc":true,"dd":true,"fg":true,"fx":true,"hu":false,"pp":false,"qq":false,"rr":true,"sd":false,"ss":true,"tg":true,"tn":true,"tx":true},{"id":24575,"name":"BAD GASTEIN","country":"AT","lat":47.1103,"lon":13.1331,"height":1092,"cc":true,"dd":true,"fg":true,"fx":true,"hu":true,"pp":true,"qq":true,"rr":true,"sd":false,"ss":true,"tg":true,"tn":true,"tx":true},{"id":24581,"name":"RAURIS","country":"AT","lat":47.2231,"lon":12.9925,"height":933,"cc":true,"dd":true,"fg":true,"fx":true,"hu":true,"pp":true,"qq":true,"rr":true,"sd":false,"ss":true,"tg":true,"tn":true,"tx":true},{"id":24583,"name":"KALS","country":"AT","lat":47.0044,"lon":12.6464,"height":1352,"cc":true,"dd":true,"fg":true,"fx":true,"hu":true,"pp":true,"qq":true,"rr":true,"sd":false,"ss":true,"tg":true,"tn":true,"tx":true},{"id":24587,"name":"ENZINGERBODEN","country":"AT","lat":47.1667,"lon":12.6331,"height":1480,"cc":true,"dd":true,"fg":true,"fx":true,"hu":true,"pp":false,"qq":false,"rr":true,"sd":false,"ss":true,"tg":true,"tn":true,"tx":true},{"id":24589,"name":"KRIMML","country":"AT","lat":47.2292,"lon":12.1817,"height":1009,"cc":true,"dd":true,"fg":true,"fx":true,"hu":true,"pp":true,"qq":true,"rr":true,"sd":false,"ss":true,"tg":true,"tn":true,"tx":true},{"id":24593,"name":"MAYRHOFEN","country":"AT","lat":47.1619,"lon":11.8514,"height":640,"cc":false,"dd":true,"fg":true,"fx":true,"hu":true,"pp":true,"qq":true,"rr":true,"sd":false,"ss":true,"tg":true,"tn":true,"tx":true},{"id":24594,"name":"STEINACH/TIROL","country":"AT","lat":47.0831,"lon":11.4664,"height":1025,"cc":false,"dd":true,"fg":true,"fx":true,"hu":false,"pp":false,"qq":false,"rr":true,"sd":false,"ss":false,"tg":false,"tn":false,"tx":false},{"id":24595,"name":"RINN","country":"AT","lat":47.25,"lon":11.5017,"height":895,"cc":true,"dd":true,"fg":true,"fx":true,"hu":true,"pp":false,"qq":false,"rr":true,"sd":false,"ss":false,"tg":true,"tn":true,"tx":true},{"id":24601,"name":"BRENNER","country":"AT","lat":47.0067,"lon":11.5106,"height":1412,"cc":false,"dd":true,"fg":true,"fx":true,"hu":true,"pp":true,"qq":true,"rr":true,"sd":false,"ss":true,"tg":true,"tn":true,"tx":true},{"id":24603,"name":"NEUSTIFT/MILDERS","country":"AT","lat":47.1028,"lon":11.2917,"height":1007,"cc":true,"dd":true,"fg":true,"fx":true,"hu":true,"pp":true,"qq":true,"rr":true,"sd":false,"ss":true,"tg":true,"tn":true,"tx":true},{"id":24605,"name":"ST.LEONHARD/PITZTAL","country":"AT","lat":47.0267,"lon":10.8656,"height":1454,"cc":false,"dd":true,"fg":true,"fx":true,"hu":true,"pp":true,"qq":true,"rr":true,"sd":false,"ss":true,"tg":true,"tn":true,"tx":true},{"id":24608,"name":"HAIMING","country":"AT","lat":47.2594,"lon":10.8892,"height":659,"cc":false,"dd":true,"fg":true,"fx":true,"hu":true,"pp":true,"qq":true,"rr":true,"sd":false,"ss":true,"tg":true,"tn":true,"tx":true},{"id":24612,"name":"IMST","country":"AT","lat":47.2367,"lon":10.7417,"height":773,"cc":false,"dd":true,"fg":true,"fx":true,"hu":true,"pp":true,"qq":true,"rr":true,"sd":false,"ss":true,"tg":true,"tn":true,"tx":true},{"id":24616,"name":"LANDECK","country":"AT","lat":47.1403,"lon":10.5631,"height":796,"cc":true,"dd":true,"fg":true,"fx":true,"hu":true,"pp":true,"qq":true,"rr":true,"sd":false,"ss":true,"tg":true,"tn":true,"tx":true},{"id":24618,"name":"LANGEN AM ARLBERG","country":"AT","lat":47.1317,"lon":10.1231,"height":1221,"cc":false,"dd":true,"fg":true,"fx":true,"hu":true,"pp":true,"qq":true,"rr":true,"sd":false,"ss":true,"tg":true,"tn":true,"tx":true},{"id":24619,"name":"VALLUGA","country":"AT","lat":47.1575,"lon":10.2128,"height":2805,"cc":false,"dd":true,"fg":true,"fx":true,"hu":true,"pp":false,"qq":false,"rr":true,"sd":false,"ss":true,"tg":true,"tn":true,"tx":true},{"id":24620,"name":"GALZIG","country":"AT","lat":47.1294,"lon":10.2303,"height":2079,"cc":true,"dd":true,"fg":true,"fx":true,"hu":true,"pp":true,"qq":true,"rr":true,"sd":false,"ss":true,"tg":true,"tn":true,"tx":true},{"id":24622,"name":"ST.ANTON AM ARLBERG","country":"AT","lat":47.1314,"lon":10.2664,"height":1304,"cc":false,"dd":true,"fg":true,"fx":true,"hu":true,"pp":true,"qq":true,"rr":true,"sd":false,"ss":true,"tg":true,"tn":true,"tx":true},{"id":24623,"name":"ST.ANTON AM ARLBERG","country":"AT","lat":47.1317,"lon":10.27,"height":1289,"cc":true,"dd":true,"fg":true,"fx":true,"hu":true,"pp":false,"qq":false,"rr":true,"sd":false,"ss":true,"tg":true,"tn":true,"tx":true},{"id":24626,"name":"BRAND","country":"AT","lat":47.1028,"lon":9.7381,"height":1029,"cc":true,"dd":true,"fg":true,"fx":true,"hu":true,"pp":true,"qq":true,"rr":true,"sd":false,"ss":true,"tg":true,"tn":true,"tx":true},{"id":24630,"name":"BLUDENZ","country":"AT","lat":47.1419,"lon":9.8356,"height":575,"cc":true,"dd":true,"fg":true,"fx":true,"hu":true,"pp":false,"qq":false,"rr":true,"sd":false,"ss":false,"tg":true,"tn":true,"tx":true},{"id":24631,"name":"BLUDENZ","country":"AT","lat":47.1478,"lon":9.8292,"height":571,"cc":false,"dd":true,"fg":true,"fx":true,"hu":true,"pp":true,"qq":true,"rr":true,"sd":false,"ss":true,"tg":true,"tn":true,"tx":true},{"id":24633,"name":"LUTZMANNSBURG","country":"AT","lat":47.4653,"lon":16.6453,"height":201,"cc":true,"dd":true,"fg":true,"fx":true,"hu":true,"pp":true,"qq":true,"rr":true,"sd":false,"ss":true,"tg":true,"tn":true,"tx":true},{"id":24636,"name":"BERNSTEIN","country":"AT","lat":47.4081,"lon":16.2614,"height":631,"cc":true,"dd":true,"fg":true,"fx":true,"hu":true,"pp":true,"qq":true,"rr":true,"sd":false,"ss":true,"tg":true,"tn":true,"tx":true},{"id":24638,"name":"KROISEGG","country":"AT","lat":47.3783,"lon":16.0419,"height":444,"cc":false,"dd":true,"fg":true,"fx":true,"hu":true,"pp":true,"qq":true,"rr":true,"sd":false,"ss":true,"tg":true,"tn":true,"tx":true},{"id":24639,"name":"HARTBERG","country":"AT","lat":47.2806,"lon":15.9781,"height":330,"cc":false,"dd":true,"fg":true,"fx":true,"hu":true,"pp":true,"qq":true,"rr":true,"sd":false,"ss":true,"tg":true,"tn":true,"tx":true},{"id":24643,"name":"LEOBEN","country":"AT","lat":47.3781,"lon":15.0867,"height":544,"cc":false,"dd":true,"fg":true,"fx":true,"hu":true,"pp":true,"qq":true,"rr":true,"sd":false,"ss":true,"tg":true,"tn":true,"tx":true},{"id":24645,"name":"KALWANG","country":"AT","lat":47.4214,"lon":14.7592,"height":744,"cc":false,"dd":true,"fg":true,"fx":true,"hu":true,"pp":true,"qq":true,"rr":true,"sd":false,"ss":true,"tg":true,"tn":true,"tx":true},{"id":24647,"name":"SECKAU","country":"AT","lat":47.2706,"lon":14.7781,"height":872,"cc":true,"dd":true,"fg":true,"fx":true,"hu":true,"pp":true,"qq":true,"rr":true,"sd":false,"ss":true,"tg":true,"tn":true,"tx":true},{"id":24648,"name":"BRUCK/MUR","country":"AT","lat":47.4056,"lon":15.2492,"height":482,"cc":true,"dd":true,"fg":true,"fx":true,"hu":true,"pp":true,"qq":true,"rr":true,"sd":false,"ss":true,"tg":true,"tn":true,"tx":true},{"id":24650,"name":"WAIDHOFEN/YBBS","country":"AT","lat":47.9456,"lon":14.8092,"height":384,"cc":false,"dd":true,"fg":true,"fx":true,"hu":true,"pp":true,"qq":true,"rr":true,"sd":false,"ss":true,"tg":true,"tn":true,"tx":true},{"id":24651,"name":"NEUSIEDL AM SEE","country":"AT","lat":47.9489,"lon":16.8283,"height":117,"cc":true,"dd":true,"fg":true,"fx":true,"hu":true,"pp":true,"qq":true,"rr":true,"sd":false,"ss":true,"tg":true,"tn":true,"tx":true},{"id":24652,"name":"ACHENKIRCH CAMPINGPLATZ","country":"AT","lat":47.4992,"lon":11.7067,"height":931,"cc":false,"dd":true,"fg":true,"fx":true,"hu":true,"pp":true,"qq":true,"rr":true,"sd":false,"ss":true,"tg":true,"tn":true,"tx":true},{"id":24653,"name":"KORNAT","country":"AT","lat":46.685,"lon":12.8889,"height":990,"cc":false,"dd":true,"fg":true,"fx":true,"hu":true,"pp":false,"qq":true,"rr":true,"sd":false,"ss":true,"tg":true,"tn":true,"tx":true},{"id":24654,"name":"DORNBIRN","country":"AT","lat":47.4319,"lon":9.7253,"height":407,"cc":false,"dd":true,"fg":true,"fx":true,"hu":false,"pp":false,"qq":false,"rr":true,"sd":false,"ss":false,"tg":false,"tn":false,"tx":false},{"id":24657,"name":"DACHSTEIN-HUNERKOGEL","country":"AT","lat":47.4675,"lon":13.6264,"height":2700,"cc":false,"dd":true,"fg":true,"fx":true,"hu":false,"pp":false,"qq":true,"rr":true,"sd":false,"ss":true,"tg":true,"tn":true,"tx":true},{"id":24658,"name":"DACHSTEIN-SCHLADMING GLETSCHER","country":"AT","lat":47.4742,"lon":13.6325,"height":2520,"cc":false,"dd":true,"fg":true,"fx":true,"hu":true,"pp":false,"qq":false,"rr":true,"sd":false,"ss":true,"tg":true,"tn":true,"tx":true},{"id":24659,"name":"MITTERSILL","country":"AT","lat":47.2792,"lon":12.4956,"height":783,"cc":false,"dd":true,"fg":true,"fx":true,"hu":true,"pp":true,"qq":true,"rr":true,"sd":false,"ss":true,"tg":true,"tn":true,"tx":true},{"id":24660,"name":"POERTSCHACH","country":"AT","lat":46.6306,"lon":14.165,"height":450,"cc":true,"dd":true,"fg":true,"fx":true,"hu":true,"pp":true,"qq":true,"rr":true,"sd":false,"ss":true,"tg":true,"tn":true,"tx":true},{"id":24661,"name":"WIEN-DONAUFELD","country":"AT","lat":48.2567,"lon":16.4314,"height":160,"cc":false,"dd":true,"fg":true,"fx":true,"hu":true,"pp":true,"qq":true,"rr":true,"sd":false,"ss":true,"tg":true,"tn":true,"tx":true},{"id":24662,"name":"MONDSEE","country":"AT","lat":47.8506,"lon":13.3467,"height":481,"cc":true,"dd":true,"fg":true,"fx":true,"hu":true,"pp":true,"qq":true,"rr":true,"sd":false,"ss":true,"tg":true,"tn":true,"tx":true},{"id":24663,"name":"RUDOLFSHUETTE","country":"AT","lat":47.1344,"lon":12.6256,"height":2317,"cc":true,"dd":true,"fg":true,"fx":true,"hu":true,"pp":true,"qq":true,"rr":true,"sd":false,"ss":true,"tg":true,"tn":true,"tx":true},{"id":24664,"name":"AIGEN/ENNSTAL","country":"AT","lat":47.5325,"lon":14.1381,"height":641,"cc":true,"dd":true,"fg":true,"fx":true,"hu":true,"pp":true,"qq":true,"rr":true,"sd":false,"ss":true,"tg":true,"tn":true,"tx":true},{"id":24665,"name":"ALLENTSTEIG","country":"AT","lat":48.6906,"lon":15.3667,"height":599,"cc":true,"dd":true,"fg":true,"fx":true,"hu":true,"pp":true,"qq":true,"rr":true,"sd":false,"ss":true,"tg":true,"tn":true,"tx":true},{"id":24666,"name":"AMSTETTEN","country":"AT","lat":48.1089,"lon":14.895,"height":266,"cc":true,"dd":true,"fg":true,"fx":true,"hu":true,"pp":true,"qq":true,"rr":true,"sd":false,"ss":true,"tg":true,"tn":true,"tx":true},{"id":24668,"name":"BAD BLEIBERG","country":"AT","lat":46.6253,"lon":13.6842,"height":908,"cc":true,"dd":true,"fg":true,"fx":true,"hu":true,"pp":true,"qq":true,"rr":true,"sd":false,"ss":true,"tg":true,"tn":true,"tx":true},{"id":24669,"name":"BAD GASTEIN","country":"AT","lat":47.1103,"lon":13.1331,"height":1092,"cc":true,"dd":true,"fg":true,"fx":true,"hu":true,"pp":true,"qq":true,"rr":true,"sd":false,"ss":true,"tg":true,"tn":true,"tx":true},{"id":24670,"name":"BAD GLEICHENBERG","country":"AT","lat":46.8719,"lon":15.9031,"height":269,"cc":true,"dd":true,"fg":true,"fx":true,"hu":true,"pp":true,"qq":true,"rr":true,"sd":false,"ss":true,"tg":true,"tn":true,"tx":true},{"id":24671,"name":"BAD RADKERSBURG","country":"AT","lat":46.6919,"lon":15.9931,"height":207,"cc":true,"dd":true,"fg":true,"fx":true,"hu":true,"pp":true,"qq":true,"rr":true,"sd":false,"ss":true,"tg":true,"tn":true,"tx":true},{"id":24673,"name":"BERNSTEIN","country":"AT","lat":47.4081,"lon":16.2614,"height":631,"cc":true,"dd":true,"fg":true,"fx":true,"hu":true,"pp":true,"qq":true,"rr":true,"sd":false,"ss":true,"tg":true,"tn":true,"tx":true},{"id":24674,"name":"BISCHOFSHOFEN","country":"AT","lat":47.4064,"lon":13.2206,"height":550,"cc":true,"dd":true,"fg":true,"fx":true,"hu":true,"pp":true,"qq":true,"rr":true,"sd":false,"ss":true,"tg":true,"tn":true,"tx":true},{"id":24675,"name":"BREGENZ","country":"AT","lat":47.4992,"lon":9.7456,"height":424,"cc":true,"dd":true,"fg":true,"fx":true,"hu":true,"pp":true,"qq":true,"rr":true,"sd":false,"ss":true,"tg":true,"tn":true,"tx":true},{"id":24676,"name":"BRENNER","country":"AT","lat":47.0067,"lon":11.5106,"height":1412,"cc":true,"dd":true,"fg":true,"fx":true,"hu":true,"pp":true,"qq":true,"rr":true,"sd":false,"ss":true,"tg":true,"tn":true,"tx":true},{"id":24677,"name":"BRUCK/MUR","country":"AT","lat":47.4056,"lon":15.2492,"height":482,"cc":true,"dd":true,"fg":true,"fx":true,"hu":true,"pp":true,"qq":true,"rr":true,"sd":false,"ss":true,"tg":true,"tn":true,"tx":true},{"id":24678,"name":"BRUCKNEUDORF","country":"AT","lat":48.0128,"lon":16.8444,"height":165,"cc":true,"dd":true,"fg":true,"fx":true,"hu":true,"pp":true,"qq":true,"rr":true,"sd":false,"ss":true,"tg":true,"tn":true,"tx":true},{"id":24679,"name":"EHRWALD","country":"AT","lat":47.4044,"lon":10.9203,"height":960,"cc":true,"dd":true,"fg":true,"fx":true,"hu":true,"pp":false,"qq":false,"rr":true,"sd":false,"ss":true,"tg":true,"tn":true,"tx":true},{"id":24680,"name":"BAD EISENKAPPEL","country":"AT","lat":46.4903,"lon":14.5931,"height":623,"cc":true,"dd":true,"fg":true,"fx":true,"hu":true,"pp":true,"qq":true,"rr":true,"sd":false,"ss":true,"tg":true,"tn":true,"tx":true},{"id":24681,"name":"EISENSTADT-NORDOST","country":"AT","lat":47.8542,"lon":16.5381,"height":184,"cc":true,"dd":true,"fg":true,"fx":true,"hu":true,"pp":true,"qq":true,"rr":true,"sd":false,"ss":true,"tg":true,"tn":true,"tx":true},{"id":24682,"name":"ENNS","country":"AT","lat":48.1956,"lon":14.45,"height":317,"cc":true,"dd":true,"fg":true,"fx":true,"hu":true,"pp":true,"qq":true,"rr":true,"sd":false,"ss":true,"tg":true,"tn":true,"tx":true},{"id":24683,"name":"FELDKIRCH","country":"AT","lat":47.2706,"lon":9.6092,"height":438,"cc":true,"dd":true,"fg":true,"fx":true,"hu":true,"pp":true,"qq":true,"rr":true,"sd":false,"ss":true,"tg":true,"tn":true,"tx":true},{"id":24684,"name":"FREISTADT","country":"AT","lat":48.4942,"lon":14.5064,"height":539,"cc":true,"dd":true,"fg":true,"fx":true,"hu":true,"pp":true,"qq":true,"rr":true,"sd":false,"ss":true,"tg":true,"tn":true,"tx":true},{"id":24686,"name":"GALTUER","country":"AT","lat":46.9681,"lon":10.1853,"height":1587,"cc":true,"dd":true,"fg":true,"fx":true,"hu":true,"pp":true,"qq":true,"rr":true,"sd":false,"ss":true,"tg":true,"tn":true,"tx":true},{"id":24688,"name":"GRAZ-UNIVERSITAET","country":"AT","lat":47.0778,"lon":15.4489,"height":367,"cc":true,"dd":true,"fg":true,"fx":true,"hu":true,"pp":true,"qq":true,"rr":true,"sd":false,"ss":true,"tg":true,"tn":true,"tx":true},{"id":24689,"name":"GROSS-ENZERSDORF","country":"AT","lat":48.1992,"lon":16.5589,"height":154,"cc":true,"dd":true,"fg":true,"fx":true,"hu":true,"pp":true,"qq":true,"rr":true,"sd":false,"ss":true,"tg":true,"tn":true,"tx":true},{"id":24690,"name":"GUMPOLDSKIRCHEN","country":"AT","lat":48.0356,"lon":16.2806,"height":212,"cc":true,"dd":true,"fg":true,"fx":true,"hu":true,"pp":true,"qq":true,"rr":true,"sd":false,"ss":true,"tg":true,"tn":true,"tx":true},{"id":24694,"name":"HOHE WAND/HOCHKOGELHAUS","country":"AT","lat":47.8219,"lon":16.035,"height":936,"cc":true,"dd":true,"fg":true,"fx":true,"hu":true,"pp":true,"qq":true,"rr":true,"sd":false,"ss":true,"tg":true,"tn":true,"tx":true},{"id":24695,"name":"SCHOENGRABERN","country":"AT","lat":48.6031,"lon":16.0614,"height":253,"cc":true,"dd":true,"fg":true,"fx":true,"hu":true,"pp":true,"qq":true,"rr":true,"sd":false,"ss":true,"tg":true,"tn":true,"tx":true},{"id":24696,"name":"IMST","country":"AT","lat":47.2367,"lon":10.7417,"height":773,"cc":true,"dd":true,"fg":true,"fx":true,"hu":true,"pp":true,"qq":true,"rr":true,"sd":false,"ss":true,"tg":true,"tn":true,"tx":true},{"id":24697,"name":"INNSBRUCK-UNIV.","country":"AT","lat":47.2594,"lon":11.3842,"height":578,"cc":true,"dd":true,"fg":true,"fx":true,"hu":true,"pp":true,"qq":true,"rr":true,"sd":false,"ss":true,"tg":true,"tn":true,"tx":true},{"id":24698,"name":"JENBACH","country":"AT","lat":47.3894,"lon":11.7553,"height":530,"cc":true,"dd":true,"fg":true,"fx":true,"hu":true,"pp":true,"qq":true,"rr":true,"sd":false,"ss":true,"tg":true,"tn":true,"tx":true},{"id":24699,"name":"KALS","country":"AT","lat":47.0044,"lon":12.6464,"height":1352,"cc":true,"dd":true,"fg":true,"fx":true,"hu":true,"pp":true,"qq":true,"rr":true,"sd":false,"ss":true,"tg":true,"tn":true,"tx":true},{"id":24700,"name":"KALWANG","country":"AT","lat":47.4214,"lon":14.7592,"height":744,"cc":true,"dd":true,"fg":true,"fx":true,"hu":true,"pp":true,"qq":true,"rr":true,"sd":false,"ss":true,"tg":true,"tn":true,"tx":true},{"id":24702,"name":"KREMS","country":"AT","lat":48.4181,"lon":15.6217,"height":202,"cc":true,"dd":true,"fg":true,"fx":true,"hu":true,"pp":true,"qq":true,"rr":true,"sd":false,"ss":true,"tg":true,"tn":true,"tx":true},{"id":24703,"name":"KRIMML","country":"AT","lat":47.2292,"lon":12.1817,"height":1009,"cc":true,"dd":true,"fg":true,"fx":true,"hu":true,"pp":true,"qq":true,"rr":true,"sd":false,"ss":true,"tg":true,"tn":true,"tx":true},{"id":24704,"name":"KLAGENFURT-FLUGHAFEN","country":"AT","lat":46.6481,"lon":14.3181,"height":450,"cc":true,"dd":true,"fg":true,"fx":true,"hu":true,"pp":true,"qq":true,"rr":true,"sd":false,"ss":true,"tg":true,"tn":true,"tx":true},{"id":24705,"name":"KLEINZICKEN","country":"AT","lat":47.2075,"lon":16.3356,"height":265,"cc":true,"dd":true,"fg":true,"fx":true,"hu":true,"pp":true,"qq":true,"rr":true,"sd":false,"ss":true,"tg":true,"tn":true,"tx":true},{"id":24706,"name":"LANDECK","country":"AT","lat":47.1403,"lon":10.5631,"height":796,"cc":true,"dd":true,"fg":true,"fx":true,"hu":true,"pp":true,"qq":true,"rr":true,"sd":false,"ss":true,"tg":true,"tn":true,"tx":true},{"id":24707,"name":"LANGENLEBARN","country":"AT","lat":48.3239,"lon":16.1178,"height":175,"cc":true,"dd":true,"fg":true,"fx":true,"hu":true,"pp":true,"qq":true,"rr":true,"sd":false,"ss":true,"tg":true,"tn":true,"tx":true},{"id":24708,"name":"LANGENLOIS","country":"AT","lat":48.4725,"lon":15.6967,"height":207,"cc":true,"dd":true,"fg":true,"fx":true,"hu":true,"pp":true,"qq":true,"rr":true,"sd":false,"ss":true,"tg":true,"tn":true,"tx":true},{"id":24709,"name":"LIENZ","country":"AT","lat":46.8253,"lon":12.8064,"height":661,"cc":true,"dd":true,"fg":true,"fx":true,"hu":true,"pp":true,"qq":true,"rr":true,"sd":false,"ss":true,"tg":true,"tn":true,"tx":true},{"id":24710,"name":"LINZ-STADT","country":"AT","lat":48.2964,"lon":14.285,"height":262,"cc":true,"dd":true,"fg":true,"fx":true,"hu":true,"pp":true,"qq":true,"rr":true,"sd":false,"ss":true,"tg":true,"tn":true,"tx":true},{"id":24711,"name":"LITSCHAU","country":"AT","lat":48.9544,"lon":15.0381,"height":558,"cc":true,"dd":true,"fg":true,"fx":true,"hu":true,"pp":true,"qq":true,"rr":true,"sd":false,"ss":true,"tg":true,"tn":true,"tx":true},{"id":24712,"name":"LUTZMANNSBURG","country":"AT","lat":47.4653,"lon":16.6453,"height":201,"cc":true,"dd":true,"fg":true,"fx":true,"hu":true,"pp":true,"qq":true,"rr":true,"sd":false,"ss":true,"tg":true,"tn":true,"tx":true},{"id":24713,"name":"MARIAZELL/ST.SEBASTIAN-FLUGFELD","country":"AT","lat":47.7889,"lon":15.3017,"height":864,"cc":true,"dd":true,"fg":true,"fx":true,"hu":true,"pp":true,"qq":true,"rr":true,"sd":false,"ss":true,"tg":true,"tn":true,"tx":true},{"id":24714,"name":"MATTSEE","country":"AT","lat":47.9767,"lon":13.1056,"height":502,"cc":true,"dd":true,"fg":true,"fx":true,"hu":true,"pp":true,"qq":true,"rr":true,"sd":false,"ss":true,"tg":true,"tn":true,"tx":true},{"id":24715,"name":"MAYRHOFEN","country":"AT","lat":47.1592,"lon":11.8503,"height":643,"cc":true,"dd":true,"fg":true,"fx":true,"hu":true,"pp":true,"qq":true,"rr":true,"sd":false,"ss":true,"tg":true,"tn":true,"tx":true},{"id":24717,"name":"MOENICHKIRCHEN","country":"AT","lat":47.5108,"lon":16.0331,"height":991,"cc":true,"dd":true,"fg":true,"fx":true,"hu":true,"pp":true,"qq":true,"rr":true,"sd":false,"ss":true,"tg":true,"tn":true,"tx":true},{"id":24718,"name":"NEUMARKT","country":"AT","lat":47.0692,"lon":14.4244,"height":869,"cc":true,"dd":true,"fg":true,"fx":true,"hu":true,"pp":true,"qq":true,"rr":true,"sd":false,"ss":true,"tg":true,"tn":true,"tx":true},{"id":24719,"name":"NEUSIEDL AM SEE","country":"AT","lat":47.9489,"lon":16.8283,"height":117,"cc":true,"dd":true,"fg":true,"fx":true,"hu":true,"pp":true,"qq":true,"rr":true,"sd":false,"ss":true,"tg":true,"tn":true,"tx":true},{"id":24720,"name":"OBERGURGL","country":"AT","lat":46.8667,"lon":11.0242,"height":1941,"cc":true,"dd":true,"fg":true,"fx":true,"hu":true,"pp":true,"qq":true,"rr":true,"sd":false,"ss":true,"tg":true,"tn":true,"tx":true},{"id":24721,"name":"LEISER BERGE","country":"AT","lat":48.5583,"lon":16.3714,"height":457,"cc":true,"dd":true,"fg":true,"fx":true,"hu":true,"pp":true,"qq":true,"rr":true,"sd":false,"ss":true,"tg":true,"tn":true,"tx":true},{"id":24722,"name":"OBERTAUERN","country":"AT","lat":47.2489,"lon":13.5592,"height":1772,"cc":true,"dd":true,"fg":true,"fx":true,"hu":true,"pp":true,"qq":true,"rr":true,"sd":false,"ss":true,"tg":true,"tn":true,"tx":true},{"id":24723,"name":"OBERVELLACH","country":"AT","lat":46.935,"lon":13.1942,"height":688,"cc":true,"dd":true,"fg":true,"fx":true,"hu":true,"pp":true,"qq":true,"rr":true,"sd":false,"ss":true,"tg":true,"tn":true,"tx":true},{"id":24724,"name":"POYSDORF-OST","country":"AT","lat":48.6692,"lon":16.6375,"height":198,"cc":true,"dd":true,"fg":true,"fx":true,"hu":true,"pp":true,"qq":true,"rr":true,"sd":false,"ss":true,"tg":true,"tn":true,"tx":true},{"id":24725,"name":"PREITENEGG","country":"AT","lat":46.9381,"lon":14.915,"height":1034,"cc":true,"dd":true,"fg":true,"fx":true,"hu":true,"pp":true,"qq":true,"rr":true,"sd":false,"ss":true,"tg":true,"tn":true,"tx":true},{"id":24726,"name":"PUCHBERG/SCHNEEBERG","country":"AT","lat":47.7903,"lon":15.9067,"height":583,"cc":true,"dd":true,"fg":true,"fx":true,"hu":true,"pp":true,"qq":true,"rr":true,"sd":false,"ss":true,"tg":true,"tn":true,"tx":true},{"id":24727,"name":"RADSTADT-TANDALIER","country":"AT","lat":47.38,"lon":13.4406,"height":835,"cc":true,"dd":true,"fg":true,"fx":true,"hu":true,"pp":true,"qq":true,"rr":true,"sd":false,"ss":true,"tg":true,"tn":true,"tx":true},{"id":24729,"name":"BRAUNAU/RANSHOFEN","country":"AT","lat":48.2242,"lon":13.0281,"height":382,"cc":true,"dd":true,"fg":true,"fx":true,"hu":true,"pp":true,"qq":true,"rr":true,"sd":false,"ss":true,"tg":true,"tn":true,"tx":true},{"id":24730,"name":"REUTTE","country":"AT","lat":47.4942,"lon":10.7153,"height":841,"cc":true,"dd":true,"fg":true,"fx":true,"hu":true,"pp":true,"qq":true,"rr":true,"sd":false,"ss":true,"tg":true,"tn":true,"tx":true},{"id":24731,"name":"ROHRBACH","country":"AT","lat":48.5669,"lon":14.0042,"height":613,"cc":true,"dd":true,"fg":true,"fx":true,"hu":true,"pp":true,"qq":true,"rr":true,"sd":false,"ss":true,"tg":true,"tn":true,"tx":true},{"id":24732,"name":"RAURIS","country":"AT","lat":47.2231,"lon":12.9925,"height":933,"cc":true,"dd":true,"fg":true,"fx":true,"hu":true,"pp":true,"qq":true,"rr":true,"sd":false,"ss":true,"tg":true,"tn":true,"tx":true},{"id":24734,"name":"REICHENAU/RAX","country":"AT","lat":47.6992,"lon":15.8367,"height":488,"cc":true,"dd":true,"fg":true,"fx":true,"hu":true,"pp":true,"qq":true,"rr":true,"sd":false,"ss":true,"tg":true,"tn":true,"tx":true},{"id":24735,"name":"RETZ/WINDMUEHLE","country":"AT","lat":48.7608,"lon":15.9417,"height":320,"cc":true,"dd":true,"fg":true,"fx":true,"hu":true,"pp":true,"qq":true,"rr":true,"sd":false,"ss":true,"tg":true,"tn":true,"tx":true},{"id":24736,"name":"RUDOLFSHUETTE","country":"AT","lat":47.1344,"lon":12.6256,"height":2317,"cc":true,"dd":true,"fg":true,"fx":true,"hu":true,"pp":true,"qq":true,"rr":true,"sd":false,"ss":true,"tg":true,"tn":true,"tx":true},{"id":24737,"name":"SAALBACH","country":"AT","lat":47.3878,"lon":12.6481,"height":975,"cc":true,"dd":true,"fg":true,"fx":true,"hu":true,"pp":true,"qq":true,"rr":true,"sd":false,"ss":true,"tg":true,"tn":true,"tx":true},{"id":24739,"name":"SCHMITTENHOEHE","country":"AT","lat":47.3281,"lon":12.7378,"height":1956,"cc":true,"dd":true,"fg":true,"fx":true,"hu":true,"pp":true,"qq":true,"rr":true,"sd":false,"ss":true,"tg":true,"tn":true,"tx":true},{"id":24740,"name":"SCHOECKL","country":"AT","lat":47.1983,"lon":15.4664,"height":1443,"cc":true,"dd":true,"fg":true,"fx":true,"hu":true,"pp":true,"qq":true,"rr":true,"sd":false,"ss":true,"tg":true,"tn":true,"tx":true},{"id":24741,"name":"SEEFELD","country":"AT","lat":47.3242,"lon":11.1753,"height":1181,"cc":true,"dd":true,"fg":true,"fx":true,"hu":true,"pp":true,"qq":true,"rr":true,"sd":false,"ss":true,"tg":true,"tn":true,"tx":true},{"id":24742,"name":"SEMMERING","country":"AT","lat":47.6331,"lon":15.8281,"height":988,"cc":true,"dd":true,"fg":true,"fx":true,"hu":true,"pp":true,"qq":true,"rr":true,"sd":false,"ss":true,"tg":true,"tn":true,"tx":true},{"id":24743,"name":"STIFT ZWETTL","country":"AT","lat":48.6178,"lon":15.2031,"height":502,"cc":true,"dd":true,"fg":true,"fx":true,"hu":true,"pp":true,"qq":true,"rr":true,"sd":false,"ss":true,"tg":true,"tn":true,"tx":true},{"id":24744,"name":"ST.ANDRAE/LAVANTTAL","country":"AT","lat":46.7642,"lon":14.8278,"height":403,"cc":true,"dd":true,"fg":true,"fx":true,"hu":true,"pp":true,"qq":true,"rr":true,"sd":false,"ss":true,"tg":true,"tn":true,"tx":true},{"id":24745,"name":"FEISTRITZ OB BLEIBURG","country":"AT","lat":46.5583,"lon":14.7664,"height":532,"cc":true,"dd":true,"fg":true,"fx":true,"hu":true,"pp":true,"qq":true,"rr":true,"sd":false,"ss":true,"tg":true,"tn":true,"tx":true},{"id":24746,"name":"ST.MICHAEL/LUNGAU","country":"AT","lat":47.0942,"lon":13.6228,"height":1052,"cc":true,"dd":true,"fg":true,"fx":true,"hu":true,"pp":true,"qq":true,"rr":true,"sd":false,"ss":true,"tg":true,"tn":true,"tx":true},{"id":24747,"name":"ST.POELTEN/LANDHAUS","country":"AT","lat":48.1992,"lon":15.6306,"height":273,"cc":true,"dd":true,"fg":true,"fx":true,"hu":true,"pp":true,"qq":true,"rr":true,"sd":false,"ss":true,"tg":true,"tn":true,"tx":true},{"id":24748,"name":"ST.VEIT/GLAN","country":"AT","lat":46.7389,"lon":14.3853,"height":463,"cc":true,"dd":true,"fg":true,"fx":true,"hu":true,"pp":true,"qq":true,"rr":true,"sd":false,"ss":true,"tg":true,"tn":true,"tx":true},{"id":24749,"name":"STOLZALPE","country":"AT","lat":47.1228,"lon":14.1881,"height":1291,"cc":true,"dd":true,"fg":true,"fx":true,"hu":true,"pp":true,"qq":true,"rr":true,"sd":false,"ss":true,"tg":true,"tn":true,"tx":true},{"id":24750,"name":"TAMSWEG","country":"AT","lat":47.1331,"lon":13.8081,"height":1025,"cc":true,"dd":true,"fg":true,"fx":true,"hu":true,"pp":true,"qq":true,"rr":true,"sd":false,"ss":true,"tg":true,"tn":true,"tx":true},{"id":24752,"name":"VILLACH-STADT","country":"AT","lat":46.6181,"lon":13.8739,"height":493,"cc":true,"dd":true,"fg":true,"fx":true,"hu":true,"pp":true,"qq":true,"rr":true,"sd":false,"ss":true,"tg":true,"tn":true,"tx":true},{"id":24753,"name":"WAIDHOFEN/YBBS","country":"AT","lat":47.9456,"lon":14.8092,"height":384,"cc":true,"dd":true,"fg":true,"fx":true,"hu":true,"pp":true,"qq":true,"rr":true,"sd":false,"ss":true,"tg":true,"tn":true,"tx":true},{"id":24754,"name":"WEITENSFELD","country":"AT","lat":46.8492,"lon":14.1906,"height":704,"cc":true,"dd":true,"fg":true,"fx":true,"hu":true,"pp":true,"qq":true,"rr":true,"sd":false,"ss":true,"tg":true,"tn":true,"tx":true},{"id":24756,"name":"WIEN-HOHE WARTE","country":"AT","lat":48.2481,"lon":16.3558,"height":198,"cc":true,"dd":true,"fg":true,"fx":true,"hu":true,"pp":true,"qq":true,"rr":true,"sd":false,"ss":true,"tg":true,"tn":true,"tx":true},{"id":24757,"name":"WIEN-MARIABRUNN","country":"AT","lat":48.2067,"lon":16.2292,"height":225,"cc":true,"dd":true,"fg":true,"fx":true,"hu":true,"pp":true,"qq":true,"rr":true,"sd":false,"ss":true,"tg":true,"tn":true,"tx":true},{"id":24758,"name":"WIEN/UNTERLAA","country":"AT","lat":48.125,"lon":16.4192,"height":200,"cc":true,"dd":true,"fg":true,"fx":true,"hu":true,"pp":true,"qq":true,"rr":true,"sd":false,"ss":true,"tg":true,"tn":true,"tx":true},{"id":24761,"name":"WOLFSEGG","country":"AT","lat":48.1056,"lon":13.6706,"height":635,"cc":true,"dd":true,"fg":true,"fx":true,"hu":true,"pp":true,"qq":true,"rr":true,"sd":false,"ss":true,"tg":true,"tn":true,"tx":true},{"id":24762,"name":"WR.NEUSTADT/FLUGPLATZ","country":"AT","lat":47.8317,"lon":16.2308,"height":275,"cc":true,"dd":true,"fg":true,"fx":true,"hu":true,"pp":true,"qq":true,"rr":true,"sd":false,"ss":true,"tg":true,"tn":true,"tx":true},{"id":24764,"name":"DEUTSCHLANDSBERG","country":"AT","lat":46.8217,"lon":15.2267,"height":354,"cc":true,"dd":true,"fg":true,"fx":true,"hu":true,"pp":true,"qq":true,"rr":true,"sd":false,"ss":true,"tg":true,"tn":true,"tx":true},{"id":24766,"name":"KITZBUEHEL","country":"AT","lat":47.4439,"lon":12.3892,"height":772,"cc":true,"dd":true,"fg":true,"fx":true,"hu":true,"pp":true,"qq":true,"rr":true,"sd":false,"ss":true,"tg":true,"tn":true,"tx":true},{"id":24767,"name":"ST.ANTON AM ARLBERG","country":"AT","lat":47.1314,"lon":10.2664,"height":1304,"cc":true,"dd":true,"fg":true,"fx":true,"hu":true,"pp":true,"qq":true,"rr":true,"sd":false,"ss":true,"tg":true,"tn":true,"tx":true},{"id":24768,"name":"FERLACH","country":"AT","lat":46.5308,"lon":14.3142,"height":459,"cc":true,"dd":true,"fg":true,"fx":true,"hu":true,"pp":true,"qq":true,"rr":true,"sd":false,"ss":true,"tg":true,"tn":true,"tx":true},{"id":24769,"name":"NAUDERS","country":"AT","lat":46.8906,"lon":10.4967,"height":1330,"cc":true,"dd":true,"fg":true,"fx":true,"hu":true,"pp":true,"qq":true,"rr":true,"sd":false,"ss":true,"tg":true,"tn":true,"tx":true},{"id":24770,"name":"KANZELHOEHE","country":"AT","lat":46.6769,"lon":13.9017,"height":1520,"cc":true,"dd":true,"fg":true,"fx":true,"hu":true,"pp":true,"qq":true,"rr":true,"sd":false,"ss":true,"tg":true,"tn":true,"tx":true},{"id":24772,"name":"SECKAU","country":"AT","lat":47.2706,"lon":14.7781,"height":872,"cc":true,"dd":true,"fg":true,"fx":true,"hu":true,"pp":true,"qq":true,"rr":true,"sd":false,"ss":true,"tg":true,"tn":true,"tx":true},{"id":24774,"name":"HAIMING","country":"AT","lat":47.2594,"lon":10.8892,"height":659,"cc":true,"dd":true,"fg":true,"fx":true,"hu":true,"pp":true,"qq":true,"rr":true,"sd":false,"ss":true,"tg":true,"tn":true,"tx":true},{"id":24775,"name":"RINN","country":"AT","lat":47.2492,"lon":11.5039,"height":924,"cc":true,"dd":true,"fg":true,"fx":true,"hu":true,"pp":true,"qq":true,"rr":true,"sd":false,"ss":true,"tg":true,"tn":true,"tx":true},{"id":24777,"name":"LOFER/ORT","country":"AT","lat":47.5842,"lon":12.6953,"height":622,"cc":true,"dd":true,"fg":true,"fx":true,"hu":true,"pp":true,"qq":true,"rr":true,"sd":false,"ss":true,"tg":true,"tn":true,"tx":true},{"id":24778,"name":"SILLIAN","country":"AT","lat":46.7458,"lon":12.4231,"height":1081,"cc":true,"dd":true,"fg":true,"fx":true,"hu":true,"pp":true,"qq":true,"rr":true,"sd":false,"ss":true,"tg":true,"tn":true,"tx":true},{"id":24779,"name":"SALZBURG-FLUGHAFEN","country":"AT","lat":47.7892,"lon":13.0081,"height":430,"cc":true,"dd":true,"fg":true,"fx":true,"hu":true,"pp":true,"qq":true,"rr":true,"sd":false,"ss":true,"tg":true,"tn":true,"tx":true},{"id":24780,"name":"BAD ISCHL","country":"AT","lat":47.7058,"lon":13.6469,"height":507,"cc":true,"dd":true,"fg":true,"fx":true,"hu":true,"pp":true,"qq":true,"rr":true,"sd":false,"ss":true,"tg":true,"tn":true,"tx":true},{"id":24781,"name":"FRAXERN","country":"AT","lat":47.3142,"lon":9.6742,"height":807,"cc":true,"dd":true,"fg":true,"fx":true,"hu":true,"pp":true,"qq":true,"rr":true,"sd":false,"ss":true,"tg":true,"tn":true,"tx":true},{"id":24782,"name":"GAENSERNDORF-STADT","country":"AT","lat":48.3375,"lon":16.7133,"height":163,"cc":true,"dd":true,"fg":true,"fx":true,"hu":true,"pp":true,"qq":true,"rr":true,"sd":false,"ss":true,"tg":true,"tn":true,"tx":true},{"id":24783,"name":"UMHAUSEN","country":"AT","lat":47.1392,"lon":10.9289,"height":1035,"cc":true,"dd":true,"fg":true,"fx":true,"hu":true,"pp":true,"qq":true,"rr":true,"sd":false,"ss":true,"tg":true,"tn":true,"tx":true},{"id":24784,"name":"DOELLACH","country":"AT","lat":46.9581,"lon":12.9025,"height":1071,"cc":true,"dd":true,"fg":true,"fx":true,"hu":true,"pp":true,"qq":true,"rr":true,"sd":false,"ss":true,"tg":true,"tn":true,"tx":true},{"id":24786,"name":"RIED IM INNKREIS","country":"AT","lat":48.2169,"lon":13.475,"height":427,"cc":true,"dd":true,"fg":true,"fx":true,"hu":true,"pp":true,"qq":true,"rr":true,"sd":false,"ss":true,"tg":true,"tn":true,"tx":true},{"id":24787,"name":"KUFSTEIN","country":"AT","lat":47.5753,"lon":12.1628,"height":490,"cc":true,"dd":true,"fg":true,"fx":true,"hu":true,"pp":true,"qq":true,"rr":true,"sd":false,"ss":true,"tg":true,"tn":true,"tx":true},{"id":24788,"name":"MICHELDORF","country":"AT","lat":47.8831,"lon":14.1342,"height":459,"cc":true,"dd":true,"fg":true,"fx":true,"hu":true,"pp":true,"qq":true,"rr":true,"sd":false,"ss":true,"tg":true,"tn":true,"tx":true},{"id":24789,"name":"SALZBURG-FREISAAL","country":"AT","lat":47.7906,"lon":13.0542,"height":419,"cc":true,"dd":true,"fg":true,"fx":true,"hu":true,"pp":true,"qq":true,"rr":true,"sd":false,"ss":true,"tg":true,"tn":true,"tx":true},{"id":24790,"name":"HOLZGAU","country":"AT","lat":47.2575,"lon":10.3381,"height":1092,"cc":true,"dd":true,"fg":true,"fx":true,"hu":true,"pp":true,"qq":true,"rr":true,"sd":false,"ss":true,"tg":true,"tn":true,"tx":true},{"id":24791,"name":"WEITRA","country":"AT","lat":48.7017,"lon":14.8981,"height":572,"cc":true,"dd":true,"fg":true,"fx":true,"hu":true,"pp":true,"qq":true,"rr":true,"sd":false,"ss":true,"tg":true,"tn":true,"tx":true},{"id":24792,"name":"SPITTAL/DRAU","country":"AT","lat":46.7903,"lon":13.4869,"height":542,"cc":true,"dd":true,"fg":true,"fx":true,"hu":true,"pp":true,"qq":true,"rr":true,"sd":false,"ss":true,"tg":true,"tn":true,"tx":true},{"id":24793,"name":"ACHENKIRCH CAMPINGPLATZ","country":"AT","lat":47.4992,"lon":11.7067,"height":931,"cc":true,"dd":true,"fg":true,"fx":true,"hu":true,"pp":true,"qq":true,"rr":true,"sd":false,"ss":true,"tg":true,"tn":true,"tx":true},{"id":24794,"name":"LAA/TH.KLAERANLAGE","country":"AT","lat":48.7308,"lon":16.3894,"height":184,"cc":true,"dd":true,"fg":true,"fx":true,"hu":true,"pp":true,"qq":true,"rr":true,"sd":false,"ss":true,"tg":true,"tn":true,"tx":true},{"id":24795,"name":"PRAEBICHL","country":"AT","lat":47.5217,"lon":14.9539,"height":1215,"cc":true,"dd":true,"fg":true,"fx":true,"hu":true,"pp":true,"qq":true,"rr":true,"sd":false,"ss":true,"tg":true,"tn":true,"tx":true},{"id":24796,"name":"FUERSTENFELD","country":"AT","lat":47.0306,"lon":16.0806,"height":271,"cc":true,"dd":true,"fg":true,"fx":true,"hu":true,"pp":true,"qq":true,"rr":true,"sd":false,"ss":true,"tg":true,"tn":true,"tx":true},{"id":24797,"name":"OBERNDORF/MELK","country":"AT","lat":48.0625,"lon":15.2139,"height":295,"cc":true,"dd":true,"fg":true,"fx":true,"hu":true,"pp":true,"qq":true,"rr":true,"sd":false,"ss":true,"tg":true,"tn":true,"tx":true},{"id":24798,"name":"KOLLERSCHLAG","country":"AT","lat":48.6028,"lon":13.8392,"height":714,"cc":true,"dd":true,"fg":true,"fx":true,"hu":true,"pp":true,"qq":true,"rr":true,"sd":false,"ss":true,"tg":true,"tn":true,"tx":true},{"id":24799,"name":"HOHENAU","country":"AT","lat":48.6164,"lon":16.9042,"height":154,"cc":true,"dd":true,"fg":true,"fx":true,"hu":true,"pp":true,"qq":true,"rr":true,"sd":false,"ss":true,"tg":true,"tn":true,"tx":true},{"id":24800,"name":"REICHERSBERG","country":"AT","lat":48.3308,"lon":13.3756,"height":351,"cc":true,"dd":true,"fg":true,"fx":true,"hu":true,"pp":true,"qq":true,"rr":true,"sd":false,"ss":true,"tg":true,"tn":true,"tx":true},{"id":24801,"name":"WAIZENKIRCHEN","country":"AT","lat":48.3267,"lon":13.8642,"height":400,"cc":true,"dd":true,"fg":true,"fx":true,"hu":true,"pp":true,"qq":true,"rr":true,"sd":false,"ss":true,"tg":true,"tn":true,"tx":true},{"id":24802,"name":"REICHENAU/MUEHLKREIS","country":"AT","lat":48.4592,"lon":14.3453,"height":689,"cc":true,"dd":true,"fg":true,"fx":true,"hu":true,"pp":true,"qq":true,"rr":true,"sd":false,"ss":true,"tg":true,"tn":true,"tx":true},{"id":24803,"name":"MONDSEE","country":"AT","lat":47.8506,"lon":13.3467,"height":481,"cc":true,"dd":true,"fg":true,"fx":true,"hu":true,"pp":true,"qq":true,"rr":true,"sd":false,"ss":true,"tg":true,"tn":true,"tx":true},{"id":24804,"name":"BERNDORF","country":"AT","lat":47.9392,"lon":16.1006,"height":337,"cc":true,"dd":true,"fg":true,"fx":true,"hu":true,"pp":true,"qq":true,"rr":true,"sd":false,"ss":true,"tg":true,"tn":true,"tx":true},{"id":24805,"name":"ABTENAU","country":"AT","lat":47.5664,"lon":13.3431,"height":709,"cc":true,"dd":true,"fg":true,"fx":true,"hu":true,"pp":true,"qq":true,"rr":true,"sd":false,"ss":true,"tg":true,"tn":true,"tx":true},{"id":24806,"name":"HALL/ADMONT","country":"AT","lat":47.5942,"lon":14.4906,"height":637,"cc":true,"dd":true,"fg":true,"fx":true,"hu":true,"pp":true,"qq":true,"rr":true,"sd":false,"ss":true,"tg":true,"tn":true,"tx":true},{"id":24807,"name":"MUERZZUSCHLAG","country":"AT","lat":47.6017,"lon":15.6728,"height":705,"cc":true,"dd":true,"fg":true,"fx":true,"hu":true,"pp":true,"qq":true,"rr":true,"sd":false,"ss":true,"tg":true,"tn":true,"tx":true},{"id":24808,"name":"POTTSCHACH","country":"AT","lat":47.7006,"lon":16.0078,"height":416,"cc":true,"dd":true,"fg":true,"fx":true,"hu":true,"pp":true,"qq":true,"rr":true,"sd":false,"ss":true,"tg":true,"tn":true,"tx":true},{"id":24809,"name":"ASPANG","country":"AT","lat":47.575,"lon":16.1014,"height":454,"cc":true,"dd":true,"fg":true,"fx":true,"hu":true,"pp":true,"qq":true,"rr":true,"sd":false,"ss":true,"tg":true,"tn":true,"tx":true},{"id":24811,"name":"SCHOPPERNAU","country":"AT","lat":47.3114,"lon":10.0175,"height":839,"cc":true,"dd":true,"fg":true,"fx":true,"hu":true,"pp":true,"qq":true,"rr":true,"sd":false,"ss":true,"tg":true,"tn":true,"tx":true},{"id":24812,"name":"SCHROECKEN","country":"AT","lat":47.2614,"lon":10.0856,"height":1244,"cc":true,"dd":true,"fg":true,"fx":true,"hu":true,"pp":true,"qq":true,"rr":true,"sd":false,"ss":true,"tg":true,"tn":true,"tx":true},{"id":24813,"name":"MITTELBERG","country":"AT","lat":47.3231,"lon":10.1525,"height":1204,"cc":true,"dd":true,"fg":true,"fx":true,"hu":true,"pp":false,"qq":true,"rr":true,"sd":false,"ss":true,"tg":true,"tn":true,"tx":true},{"id":24814,"name":"INNSBRUCK-FLUGPLATZ","country":"AT","lat":47.2594,"lon":11.3567,"height":578,"cc":true,"dd":true,"fg":true,"fx":true,"hu":true,"pp":true,"qq":true,"rr":true,"sd":false,"ss":true,"tg":true,"tn":true,"tx":true},{"id":24815,"name":"HAHNENKAMM-EHRENBACHHOEHE","country":"AT","lat":47.4181,"lon":12.3592,"height":1793,"cc":true,"dd":true,"fg":true,"fx":true,"hu":true,"pp":true,"qq":true,"rr":true,"sd":false,"ss":true,"tg":true,"tn":true,"tx":true},{"id":24817,"name":"HOCHFILZEN","country":"AT","lat":47.47,"lon":12.6206,"height":962,"cc":true,"dd":true,"fg":true,"fx":true,"hu":true,"pp":true,"qq":true,"rr":true,"sd":false,"ss":true,"tg":true,"tn":true,"tx":true},{"id":24818,"name":"BLUDENZ","country":"AT","lat":47.1478,"lon":9.8292,"height":571,"cc":true,"dd":true,"fg":true,"fx":true,"hu":true,"pp":true,"qq":true,"rr":true,"sd":false,"ss":true,"tg":true,"tn":true,"tx":true},{"id":24819,"name":"OBERWOELZ","country":"AT","lat":47.2017,"lon":14.2867,"height":842,"cc":true,"dd":true,"fg":true,"fx":true,"hu":true,"pp":true,"qq":true,"rr":true,"sd":false,"ss":true,"tg":true,"tn":true,"tx":true},{"id":24820,"name":"GUESSING","country":"AT","lat":47.0625,"lon":16.3217,"height":215,"cc":true,"dd":true,"fg":true,"fx":true,"hu":true,"pp":true,"qq":true,"rr":true,"sd":false,"ss":true,"tg":true,"tn":true,"tx":true},{"id":24821,"name":"PITZTALER GLETSCHER","country":"AT","lat":46.9267,"lon":10.8792,"height":2863,"cc":true,"dd":true,"fg":true,"fx":true,"hu":true,"pp":true,"qq":true,"rr":true,"sd":false,"ss":true,"tg":true,"tn":true,"tx":true},{"id":24822,"name":"ST.JAKOB/DEF.","country":"AT","lat":46.9167,"lon":12.3539,"height":1383,"cc":true,"dd":true,"fg":true,"fx":true,"hu":true,"pp":true,"qq":true,"rr":true,"sd":false,"ss":true,"tg":true,"tn":true,"tx":true},{"id":24823,"name":"FLATTNITZ","country":"AT","lat":46.9406,"lon":14.0356,"height":1437,"cc":true,"dd":true,"fg":true,"fx":true,"hu":true,"pp":true,"qq":true,"rr":true,"sd":false,"ss":true,"tg":true,"tn":true,"tx":true},{"id":24824,"name":"FRIESACH","country":"AT","lat":46.9581,"lon":14.4056,"height":640,"cc":true,"dd":true,"fg":true,"fx":true,"hu":true,"pp":true,"qq":true,"rr":true,"sd":false,"ss":true,"tg":true,"tn":true,"tx":true},{"id":24825,"name":"VOELKERMARKT-GOLDBRUNNHOF","country":"AT","lat":46.6706,"lon":14.6392,"height":466,"cc":true,"dd":true,"fg":true,"fx":true,"hu":true,"pp":true,"qq":true,"rr":true,"sd":false,"ss":true,"tg":true,"tn":true,"tx":true},{"id":24826,"name":"MELK","country":"AT","lat":48.2092,"lon":15.3308,"height":307,"cc":true,"dd":true,"fg":true,"fx":true,"hu":true,"pp":true,"qq":true,"rr":true,"sd":false,"ss":true,"tg":true,"tn":true,"tx":true},{"id":24828,"name":"WACHTBERG BEI STEYR","country":"AT","lat":48.0475,"lon":14.4606,"height":384,"cc":true,"dd":true,"fg":true,"fx":true,"hu":true,"pp":true,"qq":true,"rr":true,"sd":false,"ss":true,"tg":true,"tn":true,"tx":true},{"id":24831,"name":"PATSCHERKOFEL","country":"AT","lat":47.2089,"lon":11.4617,"height":2251,"cc":true,"dd":true,"fg":true,"fx":true,"hu":true,"pp":true,"qq":true,"rr":true,"sd":false,"ss":true,"tg":true,"tn":true,"tx":true},{"id":24832,"name":"SEIBERSDORF","country":"AT","lat":47.9758,"lon":16.5044,"height":185,"cc":true,"dd":true,"fg":true,"fx":true,"hu":true,"pp":true,"qq":true,"rr":true,"sd":false,"ss":true,"tg":true,"tn":true,"tx":true},{"id":24833,"name":"POERTSCHACH","country":"AT","lat":46.6306,"lon":14.165,"height":450,"cc":true,"dd":true,"fg":true,"fx":true,"hu":true,"pp":true,"qq":true,"rr":true,"sd":false,"ss":true,"tg":true,"tn":true,"tx":true},{"id":24834,"name":"HORN -  WASSERWERK","country":"AT","lat":48.6744,"lon":15.6433,"height":308,"cc":true,"dd":true,"fg":true,"fx":true,"hu":true,"pp":true,"qq":true,"rr":true,"sd":false,"ss":true,"tg":true,"tn":true,"tx":true},{"id":24835,"name":"GLEISDORF","country":"AT","lat":47.1153,"lon":15.7078,"height":377,"cc":true,"dd":true,"fg":true,"fx":true,"hu":true,"pp":true,"qq":true,"rr":true,"sd":false,"ss":true,"tg":true,"tn":true,"tx":true},{"id":24837,"name":"WOERTERBERG","country":"AT","lat":47.2258,"lon":16.0964,"height":404,"cc":true,"dd":true,"fg":true,"fx":true,"hu":true,"pp":true,"qq":true,"rr":true,"sd":false,"ss":true,"tg":true,"tn":true,"tx":true},{"id":24838,"name":"KREMSMUENSTER (TAWES)","country":"AT","lat":48.055,"lon":14.1306,"height":382,"cc":true,"dd":true,"fg":true,"fx":true,"hu":true,"pp":true,"qq":true,"rr":true,"sd":false,"ss":true,"tg":true,"tn":true,"tx":true},{"id":24839,"name":"FEUERKOGEL","country":"AT","lat":47.8164,"lon":13.7178,"height":1618,"cc":true,"dd":true,"fg":true,"fx":true,"hu":true,"pp":true,"qq":true,"rr":true,"sd":false,"ss":true,"tg":true,"tn":true,"tx":true},{"id":24840,"name":"LOIBL/TUNNEL","country":"AT","lat":46.4439,"lon":14.2489,"height":1097,"cc":true,"dd":true,"fg":true,"fx":true,"hu":true,"pp":true,"qq":true,"rr":true,"sd":false,"ss":true,"tg":true,"tn":true,"tx":true},{"id":24844,"name":"ST.LEONHARD/PITZTAL","country":"AT","lat":47.0267,"lon":10.8656,"height":1454,"cc":true,"dd":true,"fg":true,"fx":true,"hu":true,"pp":true,"qq":true,"rr":true,"sd":false,"ss":true,"tg":true,"tn":true,"tx":true},{"id":24847,"name":"SONNBLICK (TAWES)","country":"AT","lat":47.0539,"lon":12.9575,"height":3109,"cc":true,"dd":true,"fg":true,"fx":true,"hu":true,"pp":true,"qq":true,"rr":true,"sd":false,"ss":true,"tg":true,"tn":true,"tx":true},{"id":24848,"name":"GARS/KAMP","country":"AT","lat":48.5917,"lon":15.7,"height":273,"cc":true,"dd":true,"fg":true,"fx":true,"hu":true,"pp":true,"qq":true,"rr":true,"sd":false,"ss":true,"tg":true,"tn":true,"tx":true},{"id":24850,"name":"KAPFENBERG-FLUGFELD","country":"AT","lat":47.4581,"lon":15.3356,"height":515,"cc":true,"dd":true,"fg":true,"fx":true,"hu":true,"pp":true,"qq":true,"rr":true,"sd":false,"ss":true,"tg":true,"tn":true,"tx":true},{"id":24851,"name":"ANDAU","country":"AT","lat":47.77,"lon":17.0353,"height":117,"cc":true,"dd":true,"fg":true,"fx":true,"hu":true,"pp":true,"qq":true,"rr":true,"sd":false,"ss":true,"tg":true,"tn":true,"tx":true}]
